State,City,Hospital ID,Hospital Name,Address,Pin Code,Phone No.,Mobile,Fax,Contact Perso,Email,LATITUDE,LONGITUDE
Andhra Pradesh,Visakhapatnam,HOS-HYD-5142,Rama Nursing Home,"Dr.Nageswar Rao Street, Nagoyolonka",521120,08671-274285,NA,NA,NA,NA,17.690965,83.21832
Andhra Pradesh,Visakhapatnam,HOS-HYD-6039,Sraddha Hospital,14 37 45 Collector S Office Junction,530001,0891-2797878,NA,NA,NA,baskar@sraddhahospital.in,17.709526,83.30859
Andhra Pradesh,Visakhapatnam,HOS-VIZ-1288,A.N. Beach Hospital,"15-9-13/24, Krishna Nagar, Near Beach Road, Visakhapatnam",530002,0891-2525617,NA,NA,NA,anbeachhospital@yahoo.co.in,17.711407,83.312562
Andhra Pradesh,Visakhapatnam,HOS-HYD-490,Sri Sai Hospitals,"18-1-34, Opp. K.G.H. Gate, Maharanipeta",530002,0891-2703444,NA,NA,NA,abhayacriticalcar@yahoo.com,17.687244,83.218471
Andhra Pradesh,Visakhapatnam,HOS-HYD-229,Bharathi Hospital,"14-24-1, Men'S Hostel Road, Maharanipet, Visakhapatnam",530002,0891-2526500,NA,NA,NA,bharogyam@gmail.com,17.691456,83.218492
Andhra Pradesh,Visakhapatnam,HOS-HYD-514,Visakha Hospital And Diagnostics Pvt Limited (Care Ho,"A.S.Raja Complex, 10-50-11/5, Waltair Main Road, Ramnagarmaharanipeta",530002,0891-2714014,NA,NA,NA,carevisakhainsu@carehospitals.com,17.73528,83.334878
Andhra Pradesh,Visakhapatnam,HOS-VIZ-1908,Gayatri Nursing Home,"# 14-38-5, Near Maharani Peta",530002,0891-2706560,NA,NA,NA,gayatrinursinghome@gmail.com,17.714677,83.310502
Andhra Pradesh,Visakhapatnam,HOS-HYD-703,Lazarus Hospitals Ltd,Waltair Main Road,530002,0891-2784784,NA,NA,NA,lazarushospitalsltd@yahoo.com,17.725469,83.307215
Andhra Pradesh,Visakhapatnam,HOS-HYD-446,Mythri Nursing Home,16-1-4 K.G.H. Beach Roadvishakapatnam,530002,0891-2706963,NA,NA,NA,NA,17.71435,83.308931
Andhra Pradesh,Visakhapatnam,HOS-VIZ-1317,Rhea Hospital (Metroxmulti Speciality Hospital),"# 18-01-03, K.G.H. Downmaharanipeta, Jagadamba Jn",530002,0891-2793636,NA,NA,NA,hospital@hotmail.com,17.692601,83.238724
Andhra Pradesh,Visakhapatnam,HOS-HYD-979,Sevenhills Healthcare Private Limited,"11-4-4/A, Rockdale Layout, (Raghavendra Swamy Temple), Waltair Main Road",530002,0891-6677777,NA,NA,NA,suryaprakash.b@sevenhillshospital.com,17.723998,83.31239
Andhra Pradesh,Visakhapatnam,HOS-VIZ-2072,Simhadri Hospital,"15-12-1, Krishna Nagar, Maharani Peta, Visakhapatnam",530002,0891-2784545,NA,NA,NA,simhadrihospital@gmail.com,17.690802,83.217977
Andhra Pradesh,Visakhapatnam,HOS-VIZ-3612,Surya Sri Hospital Pvt. Ltd.,"15-14-19/1, Maharanipeta, Krishna Nagar, Near District Collector'S Office, Visak",530002,0891-2552233,NA,NA,NA,tpabilling@gmail.com,17.721422,83.323034
Andhra Pradesh,Visakhapatnam,HOS-VIZ-3760,Pallavi Hospital,"No.15-2-8A, Gokhale Road, Maharanipeta",530002,0891-2567735,NA,NA,NA,pallavihospital@yahoo.com,17.690802,83.218663
Andhra Pradesh,Visakhapatnam,HOS-HYD-4719,"MyCure Hospitals (Maxcure Group Of Hospitals, A Unit","18-1-3, Kgh Down, Maharanipeta, Jagadambal Junction, Vishakapatnam",530002,0891-3044000,NA,NA,NA,billing.vizag@mycurehospitals.com,17.729067,83.304322
Andhra Pradesh,Visakhapatnam,HOS-VIZ-4141,Apex Hospital (Steel City Critical Care Pvt Ltd),"16-1-5, Coastal Battery Road, Maharanipeta",530002,0891-2797791,NA,NA,NA,kottasridhar@yahoo.co.in,17.72132,83.322906
Andhra Pradesh,Visakhapatnam,HOS-HYD-4348,Vijetha Hospital,"D.No. 18-1-15&16, Kgh Down Road, Maharanipeta",530002,0891-2550354,NA,NA,NA,vijethahospitalvsp@gmail.com,17.712224,83.310845
Andhra Pradesh,Visakhapatnam,HOS-HYD-4844,Indus Hospital (A Unit Of M/S Vasugan Medical Speciali,"#18-1-6, K.G.H.Down Road, Maharanipeta, Near Lepakshi Showroom, Hotel Das",530002,0891-2508881,NA,NA,NA,indus.tpa@gmail.com,17.715822,83.302777
Andhra Pradesh,Visakhapatnam,HOS-HYD-5674,Sagara Durga Hospital,"15-13-6, Krishna Nagar, Near Z.P Junction",530002,0891-2526833,NA,NA,NA,sagaradurga@yahoo.com,17.690474,83.218663
Andhra Pradesh,Visakhapatnam,HOS-HYD-5677,Visakha Children Hospital,"D.No.14-38-1, Maharanipeta, Opp American Hospital Z.P. Junction",530002,0891-2569669,NA,NA,NA,vvisakhachildrenhospital@yahoo.com,17.717948,83.305498
Andhra Pradesh,Visakhapatnam,HOS-HYD-6250,"MyCure Hospitals (Maxcure Group Of Hospitals, A Unit","15-2-8A, Gokhale Road Survey No 7/448 Block No-4, Maharanipeta",530002,0891-3044545,NA,NA,NA,billing.vizag@mycurehospitals.com,17.719583,83.314768
Andhra Pradesh,Visakhapatnam,HOS-HYD-6553,Abc Hospitals,"#16-1-13, Kgh To Beach Down, Opp. Coastal Battery, Maharanipeta",530002,0891-2500069,NA,NA,NA,abchospitals@hotmail.com,17.714023,83.308785
Andhra Pradesh,Visakhapatnam,HOS-HYD-6597,Aditya Multi Care Hospital,"18-1-33, Opp. K.G.H.O.P Gate, Aditya Medical Complex",530002,0891-2566664,NA,NA,NA,koduru17@gmail.com,17.687285,83.21845
Andhra Pradesh,Visakhapatnam,HOS-HYD-6053,Vasan Eye Care Hospital - Vizag,"Rock Dale Layout,Waltair Main Road, Vishakapatnam - 530002, Andhra Pradesh",530002,0891-3989000,NA,NA,NA,vizag.tpa@gmail.com,17.744763,83.299318
Andhra Pradesh,Visakhapatnam,HOS-HYD-7232,Sri Venkata Raman Hospital,"#15-12-18/A, Krishna Nagar",530002,0891-2718315,NA,NA,NA,venkataramanahospital@gmail.com,17.709118,83.311064
Andhra Pradesh,Visakhapatnam,HOS-HYD-7526,Omni Rk Hospital ( A Unit Of Incor Hospitals Vizag Pvt.,"Ramnagar, Opp. Lions Club, Vishakapatnam",530002,0891-3080300,NA,NA,NA,billing.omnirk@omnihospitals.in,17.718379,83.31103
Andhra Pradesh,Visakhapatnam,HOS-HYD-7638,L.G Hospitals (A Unit Of L.G.H. Medical Specialities Priv,"17-1-17, Dr.C S Mangamma Building Maharanipeta Visakapatnam",530002,0891-2720077,NA,NA,NA,drmangamma.tpa@gmail.com,17.709486,83.305765
Andhra Pradesh,Visakhapatnam,HOS-HYD-014217,Dr. Agarwal's Eye Hospital,"Naga Chamber, 12-1-16, Plot No. 49, S No 1051, Div no. 19, Waltair Main Road",530002,9515112630,NA,NA,NA,vizag@dragarwal.com,17.7106864,83.313465
Andhra Pradesh,Visakhapatnam,HOS-VIZ-3114,Kanakadurga Hospitals Pvt Ltd,"15-6-10A, Kanakadurga Nursing Home Road, Zillaparishad Junction",530003,0891-6667201,NA,NA,NA,waltairhospital@gmail.com,17.687224,83.218493
Andhra Pradesh,Visakhapatnam,HOS-VIZ-3390,Visakha Ent Hospital,"9-24-2/A, Next To Aarif Optical Plaza, Ramatalkies, Asilmetta Road, Cbm Compo",530003,0891-2745030,NA,NA,NA,mmr_visakhaent@rediffmail.com,17.720728,83.308785
Andhra Pradesh,Visakhapatnam,HOS-HYD-4952,Subham Prema Hspital (Free Polio Surgical And Resear,"No-9-1-227, Opp Rama Talkies Junction, Cbm Compound -Cbm Compound",530003,0891-2793444,NA,NA,NA,subhampremahospital@yahoo.com,17.687347,83.21845
Andhra Pradesh,Visakhapatnam,HOS-HYD-015526,Dr. Rama Rao Hospital,"36-5-A, Ganga Nagar, Kancharapalem",530008,7036461516,NA,NA,NA,drramaraohospital@yahoo.com,17.7336726,83.2744484
Andhra Pradesh,Visakhapatnam,HOS-HYD-5226,Devi Priya Life Care Hospital,"58-1-433/2, Main Road, Santhinagar, Nad Post",530009,0891-6464756,NA,NA,NA,NA,17.731683,83.310845
Andhra Pradesh,Visakhapatnam,HOS-VIZ-1230,Venkatrama Hospital,"47-7-43 Dwarakanagar, Visakhapatnam",530010,0891-2798631,NA,NA,NA,deep_1604@yahoo.com,17.691292,83.218492
Andhra Pradesh,Visakhapatnam,HOS-VIZ-1969,Sri K.V. Punnaiah Memorial Hymavathi Nursing Home,"Mig-11-A6, Vuda Colony, Sriharipuram, Visakhapatnam",530011,0891-2577232,NA,NA,NA,kv1nr@sanchar.net.in,17.68749,83.245937
Andhra Pradesh,Visakhapatnam,HOS-VIZ-2107,St.Ann'S Jubilee Memorial Hospital,"# 62-2-106, Malkapuram, Visakhapatnam",530011,0891-2752505,NA,NA,NA,stjmhs@gmail.com,17.735525,83.271515
Andhra Pradesh,Visakhapatnam,HOS-HYD-014034,Icon Krishi Hospital Pvt. Ltd.,"Door No 32-11-2, Sheela Nagar",530012,0891-7100100,NA,NA,NA,iconkrishi@gmail.com,17.7142989,83.1966023
Andhra Pradesh,Visakhapatnam,HOS-VIZ-1672,Good Healths New Central Hospital,"50-121-76/5,6,7, OPP.4TH TOWN POLICE STATION, B.S.LAYOUT, VISHAKAPAT",530013,0891-2754992,NA,NA,NA,dr.venkat003@gmail.com,17.735607,83.304468
Andhra Pradesh,Visakhapatnam,HOS-HYD-69,Chalasani Hospitals Pvt. Ltd. (Queens NRI Hospital),"50-53-4, Gurudwaralane, Seethammadhara, Visakhapatnam-, Beside A.P.E.P.D.L",530013,0891-2353063,NA,NA,NA,queensnrihospitals@gmail.com,17.740757,83.308035
Andhra Pradesh,Visakhapatnam,HOS-HYD-488,Raghavendra Hospital,#49-54-10/2/A Near Port Stadium Nh,530013,0891-2704055,NA,NA,NA,raghavendrahospital13@gmail.com,17.687347,83.218578
Andhra Pradesh,Visakhapatnam,HOS-HYD-3485,Vizag Orthopaedics & Special Surgery,"52-10-17, Opp Times Of India Office, Eesapuvani Palam",530013,0891-5574540,NA,NA,NA,hk_ankim@hotmail.com,17.714187,83.309815
Andhra Pradesh,Visakhapatnam,HOS-HYD-3501,"Lions District 324-C1,Cancer Treatment & Research Cen","Seethammadhara North Extension, Abhaya Anjaneya Swamy Temple",530013,0891-2543214,NA,NA,NA,lionscancerhospital@rediffmail.com,17.750976,83.308245
Andhra Pradesh,Visakhapatnam,HOS-HYD-4736,Nikitha Hospital,"54-13-6, Seethammadhara",530013,0891-2501501,NA,NA,NA,billinghead@nikithahospital.com,17.751629,83.313738
Andhra Pradesh,Visakhapatnam,HOS-HYD-6004,Rama Hospitals,"#50-50-33/2 Behind Gurudwara, B.S Layout",530013,0891-2727234,NA,NA,NA,ramahospitals@yahoo.com,17.740512,83.306726
Andhra Pradesh,Visakhapatnam,HOS-HYD-6575,Sunita Nursing Home,"Gandhinagar, Near Mro Office",530013,0891-2552911,NA,NA,NA,drgvrao51@gmail.com,17.746888,83.314107
Andhra Pradesh,Visakhapatnam,HOS-HYD-491,Annapoorna Hospital,"47-9-32, 3Rd Lane, Dwarakanagar, Visakahpatnam",530016,0891-2755875,NA,NA,NA,annapoornahospitalvizag@gmail.com,17.734953,83.302065
Andhra Pradesh,Visakhapatnam,HOS-HYD-357,Anupama Surgical & Children Hospital,"47-9-21, Dwarakanagar, Visakha Patnam",530016,0891-6662122,NA,NA,NA,anupamachildrenhospital@gmail.com,17.73201,83.305009
Andhra Pradesh,Visakhapatnam,HOS-HYD-2510,Apoorva Health Services Pvt Ltd,"50-17-62, Rajendranagar, Visakhapatnam",530016,0891-2747436,NA,NA,NA,apoorvahospitals@gmail.com,17.736915,83.308931
Andhra Pradesh,Visakhapatnam,HOS-VIZ-2239,Vision Care Centre Super Speciality Eye Hospital,"43-14-24/4 & 43-14-24/4/2 (1St Floor) Sai Krishna Complex, Main Road, Rail",530016,0891-2790000,NA,NA,NA,viswanadhbk@yahoo.com,17.737896,83.315111
Andhra Pradesh,Visakhapatnam,HOS-HYD-2980,Maxivision Eye Hospitals Pvt Ltd.,"47-10-12, Pavan Paradise, Dwaraka Nagar Ii Lane",530016,0891-2550550,NA,NA,NA,maxivisionvizag@gmail.com,17.797073,83.377201
Andhra Pradesh,Visakhapatnam,HOS-VIZ-3272,Kala Hospitals Pvt Ltd,"47-1-104, 6Th Lane, Dwarakanagar, Visakhapatnam-, Near B.V.K. College",530016,0891-2764748,NA,NA,NA,kalahospitalltd@gmail.com,17.739204,83.304468
Andhra Pradesh,Visakhapatnam,HOS-HYD-4420,Kalavathi Surgical Hospital,"Opp Sreekanya Theater, Railway New Colony",530016,0891-2710945,NA,NA,NA,kalavathi_hospital@gmail.com,17.687244,83.2186
Andhra Pradesh,Visakhapatnam,HOS-HYD-5505,Krishna Maternity And Nursing Home,"D.No.43-5-53, Raiway New Colony, Visakapatnam",530016,0891-2720769,NA,NA,NA,kmnursinghome@gmail.com,17.732337,83.293336
Andhra Pradesh,Visakhapatnam,HOS-HYD-5883,Sai Spoorthy Hospital,"#47-9-35, 3Rd Lane Dwarkanagar Vsp Naear Diamond Park Sankararajan Road",530016,0891-2708108,NA,NA,NA,saispoorthyhospital@gmail.com,17.727268,83.303637
Andhra Pradesh,Visakhapatnam,HOS-HYD-6906,Sri Krishna Hospital,"49-45-4, Old Post Office Road, Akkayyapalem",530016,0891-2768889,NA,NA,NA,srikrishnahospitals@gmail.com,17.686836,83.218461
Andhra Pradesh,Visakhapatnam,HOS-HYD-7434,Prasanthi Hospital,"Slv Arcade, Opp Sri Kanya Theatre, Rly. New Colony,",530016,0891-2554811,NA,NA,NA,prasanthihospitals12@gmail.com,17.726594,83.295851
Andhra Pradesh,Visakhapatnam,HOS-HYD-6463,Padmasri Hospital,"# 49-48-16/5, Nggo'S Colony, Highway, Visakhapatnam",530016,0891-2734747,NA,NA,NA,padmasrihospitals@gmail.com,17.74509,83.304468
Andhra Pradesh,Visakhapatnam,HOS-HYD-015524,Sri Krishna Surgical Hospital,"No:49-33-32, Apex Towers Rama Krishna Nagar, Near Ramalingswara Swamy T",530016,9533056022,NA,NA,NA,srikrishnasurgicalhospital@gmail.com,17.7325075,83.2995236
Andhra Pradesh,Visakhapatnam,HOS-HYD-227,Apollo Hospitals,"Waltair Main Road, Vishakapatnam",530017,0891-2727272,NA,NA,NA,apvzfax@gmail.com,17.723834,83.310991
Andhra Pradesh,Visakhapatnam,HOS-HYD-4565,Mahatma Gandhi Cancer Hospital & Research Institute,"1/7, M.V.P. Colony",530017,0891-2878787,NA,NA,NA,mgchbilling.tpa@gmail.com,17.750649,83.33674
Andhra Pradesh,Visakhapatnam,HOS-HYD-4347,Waltair Multicare Hospital,"8-1-97/2, Pedawaltair, Near Laxmi Ganapati Tales",530017,0891-6532655,NA,NA,NA,waltairmulticarehospital@gmail.com,17.749341,83.334337
Andhra Pradesh,Visakhapatnam,HOS-HYD-015793,Amma Hospital,"D. No. 1-44-1/2, Sector - 1, MVP Colony, Venkojipalem",530017,0891-2769456,NA,NA,NA,ammahospital666@gmail.com,17.7365837,83.3388608
Andhra Pradesh,Visakhapatnam,HOS-HYD-013571,Suraksha Health Park Hospitals,"#38-40-42/2, 104 Area Mainroad,",530018,0891-6646666,NA,NA,NA,srinivas.surakshahealthpark@gmail.com,17.742384,83.250579
Andhra Pradesh,Visakhapatnam,HOS-VIZ-2244,Prabha Clinic & Nursing Home,"29-2-36, Jail Road, Opp:Dist, Court, Visakhapatnam",530020,0891-2566637,NA,NA,NA,prabhanursinghome@yahoo.com,17.724815,83.304125
Andhra Pradesh,Visakhapatnam,HOS-HYD-5666,Aarif Nursing Home,"Lakshmi Street, Near Income Tax Office",530020,0891-6646701,NA,NA,NA,aarifnursinghome@yahoo.com,17.68982,83.218663
Andhra Pradesh,Visakhapatnam,HOS-VIZ-4215,Sri Gayatri Nursing Home & Maternity Hospital,"6-4-41A, China Waltair Main Road",530023,0891-2754328,NA,NA,NA,krishnasaip@gmail.com,17.807799,83.220209
Andhra Pradesh,Visakhapatnam,HOS-HYD-014697,Sri Krishna Orthopedic Hospital,"6-66-15,Sramika Nagar, Near Police Gate Chinna,Gantyada Gajuwaka",530026,0891-2513108,NA,NA,NA,srikrishnahospital994@gmail.com,17.7215044,83.2024373
Andhra Pradesh,Visakhapatnam,HOS-HYD-013698,Vasan Eye Care Hospital-Visakhapatnam,"#8-13-7, Sai Sarvesh Heights, Beside Titan Showroom, NH-5 ,HIGHWAY ,OLD Ga",530026,0891-3989030,NA,NA,NA,tpa.gajuwaka@gmail.com,17.6868159,83.2184815
Andhra Pradesh,Visakhapatnam,HOS-HYD-015986,Harshitha Hospital,"GNT Road, New Gajuwaka Main Road, New Gajuwaka Photo Studio, Gajuwaka",530026,0891-2569444,NA,NA,NA,harshithahospital@yahoo.com,17.6850754,83.2104426
Andhra Pradesh,Visakhapatnam,HOS-HYD-489,S.R.Hospital,"Opp.Rythu Bazar, Gopalapatnam",530027,0891-2520822,NA,NA,NA,srhospital.in@gmail.com,17.704212,83.215745
Andhra Pradesh,Visakhapatnam,HOS-HYD-6537,L.V. Prasad Eye Institute,"11-113/1, Hanumanthuwaka Junction",530040,0891-3984000,NA,NA,NA,gmrv-insurance@lvpei.org,17.687408,83.218493
Andhra Pradesh,Visakhapatnam,HOS-HYD-014360,Susruta Ent Hospital,"Plot no: 14A, Health City, Chinagadili",530040,9100020155,NA,NA,NA,insurance.susrutahospital@gmail.com,17.7640045,83.3068657
Andhra Pradesh,Visakhapatnam,HOS-HYD-014898,Pinnacle Hospitals India Pvt. Ltd.,"Plot No.10, 11 & 12, Apiic Health City, Parvati Nagar, Arilova",530040,0891-3099999,NA,NA,NA,tpa@pinnaclehospitals.com,17.7635525,83.3074101
Andhra Pradesh,Visakhapatnam,HOS-HYD-015145,HCG Pinnacle Cancer Centre (A Unit Of HCG Pinnacle O,"10, 11 & 12 Survey No. 13P, Health City, Chinnagadhili",530040,0891-66882738,NA,NA,NA,vijay.kumar@hcgoncology.com,17.7639315,83.307806
Andhra Pradesh,Visakhapatnam,HOS-HYD-014972,Star Pinnacle Heart Centre Private Limited,"Plot No. 10,11,12, APIIC Health City, Chinnagadili, Arilova",530040,0891-3099977,NA,NA,NA,am.billing@starpinnacle.in,17.7613647,83.2880591
Andhra Pradesh,Visakhapatnam,HOS-HYD-013643,Ujhwal Hospitals,"6-127/12, Madurawada",530041,0891-2501166,NA,NA,NA,ujhwalhospitals@gmail.com,17.8130265,83.353429
Andhra Pradesh,Visakhapatnam,HOS-HYD-4179,Sankar Foundation Eye Hospital,"D. No 19-50, Saimadhava Nagar, Naidu Thota, Vepagunta",530047,0891-2891100,NA,NA,NA,empanelment@sankarfoundation.in,17.767038,83.220442
Andhra Pradesh,Visakhapatnam,HOS-HYD-014707,Usha Prime Multispeciality (A Division Of Chilukuri He,"D. No: 12-4-6/1 Beside IOB Bank, Pudimadaka Road, Anakapalle",531001,08924-224848,NA,NA,NA,billing@ushaprime.com,0,0
Andhra Pradesh,Visakhapatnam,HOS-HYD-015490,Tirumala Jyothi Hospital,"Pudimadaka Road, Near RTC Complex, Anakapalle",531001,08924-225779,NA,NA,NA,tirumalajyotihospital@gmail.com,17.6853521,83.0079371
Andhra Pradesh,Amalapuram,HOS-HYD-3807,Konaseema Institute Of Medical Sciences & Research F,"Nh-241, Chaitanya Nagar, From Rajamundry To Kakinada By Road",533201,08856-237996,NA,NA,NA,billing@kims.in,17.006888,81.831253
Andhra Pradesh,Amalapuram,HOS-HYD-013530,Srinidhi Hospitals,"No. 3-2-117E, Knf Road",533201,08856-232166,NA,NA,NA,srinidhihospitalsamp@gmail.com,16.5847,82.008948
Andhra Pradesh,Ananthapur,HOS-HYD-228,Aasha Hospitals,"7-201, Court Road",515001,08854-274194,NA,NA,NA,kedarnathstar@gmail.com,15.135764,77.604126
Andhra Pradesh,Ananthapur,HOS-HYD-1244,Jeevana Jyothi Hospital,"#15/381, Kamala Nagar",515001,08554-249988,NA,NA,NA,jjhlcare@gmail.com,14.681039,77.599844
Andhra Pradesh,Ananthapur,HOS-HYD-4214,Sri Sai Krupa Nursing Home,"10/368, New Sarojini Road",515001,08554-274564,NA,NA,NA,gaddale9@gmail.com,14.68025,77.590204
Andhra Pradesh,Ananthapur,HOS-HYD-4492,Balaji Eye Care & Laser Centre,"#15-455, Near Srs Lodge, Kamala Nagar",515001,040-66136238,NA,NA,NA,avrreddy1234@gmail.com,17.435227,78.448023
Andhra Pradesh,Ananthapur,HOS-HYD-5493,Baby Hospital,12-2-950(12-358)Sai Nager 2Nd Cross,515001,08554-237969,NA,NA,NA,baby_hospital@rediffmail.com,14.674148,77.60287
Andhra Pradesh,Ananthapur,HOS-HYD-5622,Mythri Hospital,"15/721, Munirathnam Transport, Kamalanagar",515001,08554-274630,NA,NA,NA,mythrihospitalatp@gmail.com,14.681267,77.601046
Andhra Pradesh,Ananthapur,HOS-HYD-6117,Dr. Akbar Eye Hospital,#12-3-2 346Th Lane Sai Nagar,515001,08554-235009,NA,NA,NA,akbareye@redffimail.com,14.673649,77.601493
Andhra Pradesh,Ananthapur,HOS-HYD-6439,Dr Ysr Memorial Hospital,"#12-2-878, 1Cross, Sai Nagar",515001,08554-247155,NA,NA,NA,shyamysrhospitals@gmail.com,14.676555,77.603038
Andhra Pradesh,Ananthapur,HOS-HYD-013371,Snehalatha Hospitals,"D.No. 13-3-510, Opp: Ganga Gowri Cine Complex, Khaja Nagar",515001,08554-277077,NA,NA,NA,snehalatha.hospitals@gmail.com,14.6839761,77.599733
Andhra Pradesh,Ananthapur,HOS-HYD-015558,Sreenivasa Childrens Hospital,"13-3-488, Near Ganga-Gowri Cine Complex",515001,0855-4241104,NA,NA,NA,sch241104@gmail.com,14.6941362,77.5991921
Andhra Pradesh,Ananthapur,HOS-HYD-013697,Vasan Eye Care Hospital-Anantapur,"#15/581, Raju Road",515001,08554-398900,NA,NA,NA,anantapurtpa.vasaneye@gmail.com,49.831467,15.4685786
Andhra Pradesh,Ananthapur,HOS-HYD-5707,Sainath Hospital,"1-616-2B-R, R.S.Road, Kadiri",515591,08494-220650,NA,NA,NA,drgusha@yahoo.com,14.114934,78.160588
Andhra Pradesh,Bhimavaram,HOS-HYD-2264,Krishna Hospital,"Undi Road, Near Town Railway Station",534202,08816-227177,NA,NA,NA,gsnraju1969@gmail.com,16.54756,81.516875
Andhra Pradesh,Bhimavaram,HOS-HYD-3576,Varma Heart Care Centre,"#3-1-177, Undi Road",534202,08816-222701,NA,NA,NA,varmahospitals@gmail.com,16.546202,81.520007
Andhra Pradesh,Bhimavaram,HOS-HYD-4533,Srilakshmi Hospitals,"3-6-36, Town Railway Station Road",534202,08816-223160,NA,NA,NA,manoj.t225@gmail.com,16.547066,81.519063
Andhra Pradesh,Bhimavaram,HOS-HYD-5470,Sri Kanakadurga Nursing Home,"Juvvalapalem Road, J.P Road",534202,08816-223635,NA,NA,NA,satyanarayana5@hotmail.com,16.542829,81.50224
Andhra Pradesh,Bhimavaram,HOS-HYD-7369,Pallavi Hospitals,"27--7-25/A, J.P. Road, Sarovar Street.",534202,08816-226654,NA,NA,NA,pallavihospitals@gmail.com,16.54257,81.516183
Andhra Pradesh,Chittoor,HOS-HYD-5140,Dr.Agarwal'S Eye Hospital Ltd,"#22-339/2, Kongareddy Palle",517001,08572-232991,NA,NA,NA,chittoor@dragarwal.com,13.218222,79.100262
Andhra Pradesh,Chittoor,HOS-HYD-3921,Sreelatha Modern Eye Hospital & Research Centre,"2-63/1, Officers Lane Opp Municipal Office Near New Apsrtc Bus Stand",517001,08572-226660,NA,NA,NA,sreelathameh@yahoo.co.in,13.220144,79.105829
Andhra Pradesh,Chittoor,HOS-HYD-015824,Babu Nursing Home,"D No 2-125411, Konga Reddipalli",517001,08572-230441,NA,NA,NA,babunursinghome1@gmail.com,13.217176,79.1003289
Andhra Pradesh,Chittoor,HOS-HYD-015560,Asshraya Multi Speciality Hospital,"1-653/3, Opp. Kannan Kalyanamandapam, Kattamanchi, Chittoor",517001,08572-246544,NA,NA,NA,aasrayahospital@gmail.com,13.2239196,79.1266288
Andhra Pradesh,Chittoor,HOS-HYD-5263,Madanapalle Hospital (P) Ltd,"C.T.M Road, Madanapalle",517325,08571-223565,NA,NA,NA,pasaladnr@yahoo.com,13.64557,78.567092
Andhra Pradesh,Chittoor,HOS-HYD-2452,Sri Vignesh Hospital,"10-2-138/1A, T.K. Street",517501,0877-2227544,NA,NA,NA,csrikanth_ms@yahoo.co.in,13.225909,79.100138
Andhra Pradesh,Chittoor,HOS-HYD-5682,M.S.Hospitals,"18-2-263, Road #1, Abbanna Colony",517501,0877-2280779,NA,NA,NA,mshospitals@gmail.com,13.225909,79.098078
Andhra Pradesh,Chittoor,HOS-HYD-5799,Vasan Eye Care Hospital,"13-5-531,D/11,Tuda Office Road,Tata Nagar, Tirupati - 517501, Andhra Prades",517501,0877-3989000,NA,NA,NA,tirupathivasan@yahoo.com,13.22524,79.099451
Andhra Pradesh,Chittoor,HOS-HYD-1471,Narayanadri Hospitals & Research Institute Pvt Ltd.,"Beside Vaartha Press, Renigunta Road",517506,0877-6543111,NA,NA,NA,narayanadrihospitals@gmail.com,13.634706,79.420849
Andhra Pradesh,Chittoor,HOS-HYD-2769,Swarnamrutha Hospital,91 (Od) M.H. Road,517507,0877-2286602,NA,NA,NA,sadhuamrutha@gmail.com,13.224238,79.100481
Andhra Pradesh,Cuddapah,HOS-HYD-2973,K.C.M. Hospital,"3/224, Christian Lane",516001,08562-250762,NA,NA,NA,NA,14.77704,78.195098
Andhra Pradesh,Cuddapah,HOS-HYD-2961,Palla Krishnaiah Memorial Nursing Home,"Christian Line, Opp Police Line Gate",516001,08562-246088,NA,NA,NA,NA,14.478148,78.823894
Andhra Pradesh,Cuddapah,HOS-HYD-2962,Sree Hospital,"1/700-4, Dwaraka Nagar, Behind Gayathri Jr. College",516001,08562-277499,NA,NA,NA,sreehospital@gmail.com,14.478398,78.823808
Andhra Pradesh,Cuddapah,HOS-HYD-5528,Jyothi Nursing Home,"#3/374, Railway Station Road",516001,08562-652223,NA,NA,NA,penumadujyothi@yahoo.com,14.84975,78.392533
Andhra Pradesh,Cuddapah,HOS-HYD-5523,Sri Krishna Sahithi Eye Hospital,"3/137, Christian Lane",516001,08562-255678,NA,NA,NA,sahithi77eyehospital@gmail.com,14.478356,78.82398
Andhra Pradesh,Cuddapah,HOS-HYD-2881,Bharathi Hospital,"1/82, R.S. Road",516004,08562-257026,NA,NA,NA,bharathihospitals123@gmail.com,14.46936,78.824069
Andhra Pradesh,Cuddapah,HOS-HYD-5621,Himalaya Multispeciality Hospital,"#1-81/1, R.S.Road, Yerra Mukkapally",516004,08562-256256,NA,NA,NA,himalayahospital@gmail.com,14.471749,78.823274
Andhra Pradesh,Cuddapah,HOS-HYD-4070,Vishnu Nursing Home,"10/596, M.G. Road, Rly Kodur",516101,08566-242222,NA,NA,NA,dr.srjam@yahoo.com,13.958724,79.352604
Andhra Pradesh,Cuddapah,HOS-HYD-4103,Kalyana Chakravarthy Hospitals,"3/1467, Holmespet, Proddatur",516360,08564-251650,NA,NA,NA,kcnhpdtr@gmail.com,14.751311,78.548787
Andhra Pradesh,Cuddapah,HOS-HYD-5056,Lakshmi Kishore Nursing Home,"5/1895, Geetha Ashramam Road, Proddatur",516360,08564-251904,NA,NA,NA,docjkr@gmail.com,14.788161,78.545174
Andhra Pradesh,Cuddapah,HOS-HYD-4241,Jaya Vishnu Hospital,"Geetha Ashram Road, Proddatur",516360,08564-251097,NA,NA,NA,vishnumbbs87@gmail.com,14.750315,78.548444
Andhra Pradesh,Cuddapah,HOS-HYD-4600,Cnr Nursing Home,"4/6, Gandhi Road, Proddatur",516360,08564-251559,NA,NA,NA,drpratapreddymb@hotmail.com,14.748987,78.547585
Andhra Pradesh,Cuddapah,HOS-HYD-4227,Swetha Nursing Home,"4-612/A, Super Bazar Road, Proddatur",516361,08564-253222,NA,NA,NA,sridhar_devireddy@yahoo.com,14.749983,78.548615
Andhra Pradesh,East Godavari,HOS-HYD-6324,Apollo Hospital (Kakinada),"13-1-3, Main Road, Kakinada",533001,0884-2302607,NA,NA,NA,creditcell_kkd@apollohospitals.com,16.961125,82.235924
Andhra Pradesh,East Godavari,HOS-HYD-5172,Sanjana Orthopaedic Hospital,"Danavaipeta D.No 46-18-22, Rajamundry",533103,0883-2445114,NA,NA,NA,drdramarao@gmail.com,17.008694,81.78203
Andhra Pradesh,East Godavari,HOS-HYD-4114,Adarsh Hospital,"86-26-5, V.L. Puram Jn, M.S. Narayana Street, Rajamundry",533103,0883-2431956,NA,NA,NA,ceoadarshhospitals@gmail.com,17.03709,81.78614
Andhra Pradesh,East Godavari,HOS-HYD-4735,Akira Eye Hospital,"Aryapuram, Rajamundry",533104,0883-2471147,NA,NA,NA,akiraeyehospital@gmail.com,17.01366,81.771902
Andhra Pradesh,East Godavari,HOS-HYD-5206,Sri Bikkina Nursing Home,"D.No. 4-1-37, Opp. Vijaya Mahal, Mandapeta",533308,08855-233761,NA,NA,NA,gopalbikkina@yahoo.co.in,16.879769,81.929144
Andhra Pradesh,East Godavari,HOS-HYD-013496,Sura Reddy Nursing Home,"No. 1-42-59/4, High School Road, Pandalapaka",533345,08857-233545,NA,NA,NA,surareddynursinghome8511@gmail.com,16.92244,82.0134
Andhra Pradesh,East Godavari,HOS-HYD-014058,Panduranga Praja Vydyasala (Under Neshna Trust),"2-17-29, NEAR SRI RAMA THEATRE, TUNI",533401,08854-256092,NA,NA,NA,pandurangaprajavydyasala@gmail.com,17.3580985,82.5364959
Andhra Pradesh,Eluru,HOS-HYD-014757,Andhra Hospitals (Eluru) Pvt Ltd.,"#23-A-8-8, Bendapudivari Street, R.R Peta",534002,08812-222272,NA,NA,NA,ah3elrempanelments@gmail.com,16.711975,81.0988483
Andhra Pradesh,Eluru,HOS-HYD-015599,Chaitra Hospital,"Opp. KDPT School, Ashok Nagar, Eluru",534002,08812-234533,NA,NA,NA,chaitra.hospitals@gmail.com,16.7211101,81.0906422
Andhra Pradesh,Eluru,HOS-HYD-3995,Alluri Sitarama Raju Academy Of Medical Sciences,"Malkapuram, NH-5, Vijayawada Visakapatnam Road, Eluru, West Godavari",534004,08812-288288,NA,NA,NA,asram.billing@gmail.com,16.741592,81.147397
Andhra Pradesh,Eluru,HOS-HYD-4208,Kay Vee Hospital,"#25-1910, Kay Vee Hospital Street, Eluru",534006,08812-231919,NA,NA,NA,katneniv@gmail.com,16.711137,81.100749
Andhra Pradesh,Eluru,HOS-HYD-013468,Mahalakshmi Hospitals,"R.R, Peta, Ramamahal Ladies Gate Road, Karturivari Street, Eluru",534006,08812-240301,NA,NA,NA,mahalakshmihospital2013@gmail.com,16.714269,81.101547
Andhra Pradesh,Gajuwaka,HOS-HYD-68,Amrutha Nursing Home Private Limited,"D.No.10-7-85, Kailash Nagar",530026,0891-2517345,NA,NA,NA,devnraju@gmail.com,17.686795,83.210007
Andhra Pradesh,Gajuwaka,HOS-HYD-310,Padmaja Hospital,"Old Junction, Visakhapatnam",530026,0891-2762975,NA,NA,NA,padmajahospital.60@gmail.com,17.701064,83.21658
Andhra Pradesh,Gajuwaka,HOS-HYD-70,Rk Hosptial (Gajuwaka Hospitals Pvt. Ltd.),Chaitanya Nagar,530026,0891-2517599,NA,NA,NA,rkhospital.gajuwaka@gmail.com,17.684996,83.202289
Andhra Pradesh,Gajuwaka,HOS-HYD-6507,Sujatha Hospital,"6-60-8/9, Sramika Nagar, Visakapatnam",530026,0891-657715,NA,NA,NA,sujatha.hospital@gmail.com,17.684709,83.198601
Andhra Pradesh,Gudivada,HOS-HYD-5670,Sri Rama Nursing Home,"10/207, Eluru Road, Krishna",521301,08674-244773,NA,NA,NA,drvamsims@gmail.com,16.444235,80.991805
Andhra Pradesh,Gudivada,HOS-HYD-5881,Sri Sai Ratna Eye Hospital,10-88 Lokavari Street Eluru Road Beside Bommarillu Theatre Krishna Dist,521301,08674-249289,NA,NA,NA,ckrao38@yahoo.co.in,16.439707,80.992878
Andhra Pradesh,Gudivada,HOS-HYD-6572,Annapurna Multispeciality Hospital,10/165 Eluru Road Krishna- Opp.Bank Of Baroda,521301,08674-245425,NA,NA,NA,dr.paladagu@gmail.com,16.442465,80.991891
Andhra Pradesh,Gudur,HOS-HYD-5993,Mydhili Hospital,#14/20 Ics Road Opp Vegitable Market,524101,08624-253896,NA,NA,NA,mydhilyhospitalgudur@yahoo.in,14.146314,79.850003
Andhra Pradesh,Guntur,HOS-HYD-1225,Amaravathi Institute Of Medical Sciences Pvt Ltd,"Old Club Road, Kothapeta. Oldclub Road",522001,0863-2256699,NA,NA,NA,aimshospital2002@gmail.com,16.435694,80.567741
Andhra Pradesh,Guntur,HOS-HYD-1524,Ent Nursing Home,"12-25-191, Kothapet Main Road, Oppsite To Bhagath Singh Statne",522001,0863-2225729,NA,NA,NA,bayyaenthospital@gmail.com,16.317504,80.429432
Andhra Pradesh,Guntur,HOS-HYD-2069,Karumuri Hospital,"13-4-73, Old Club Road, Kothapeta",522001,0863-2222200,NA,NA,NA,karumuri63@msn.com,16.299381,80.452792
Andhra Pradesh,Guntur,HOS-HYD-825,Lalitha Super Specialities Hospital (P) Ltd,"12-21-59, Gowrisankar Theatre Road, Kothapet",522001,0863-2217401/02,NA,NA,NA,lalithahospitals@gmail.com,16.315527,80.43532
Andhra Pradesh,Guntur,HOS-HYD-2,Padmavathy Super Speciality Hospital,"Opp:Head Post Office, Kothapet",522001,0863-225373,NA,NA,NA,drvvsrao36@yahoo.com,16.299422,80.43382
Andhra Pradesh,Guntur,HOS-HYD-1726,Sudarsani Eye Hospital,"# 12-25-167, Kothapet",522001,0863-2220028,NA,NA,NA,sudarsani@hotmail.com,16.298721,80.449527
Andhra Pradesh,Guntur,HOS-HYD-2703,Dhulipalla Hospital Guntur,"12-25-179, Kothapet, Opp Sivalayam",522001,08632-220461,NA,NA,NA,dr_dulipala@yahoo.co.in,16.29971,80.43382
Andhra Pradesh,Guntur,HOS-HYD-2935,Yashaswi Hospital,"12-25-165, Yadavallivari Street",522001,0863-2243244,NA,NA,NA,prabasshaney@yahoo.com,16.298989,80.433673
Andhra Pradesh,Guntur,HOS-HYD-3144,R.K. Eye Centre,"Opp, Anna Srisrinivasa Rao Kalyana Mantapam, Kothapet",522001,0863-2252205,NA,NA,NA,drtadanki@gmail.com,16.297774,80.451029
Andhra Pradesh,Guntur,HOS-HYD-2994,Sai Priya Hospital,"Main Road, Sambasivapet, Govt Womens Gollege Road",522001,0863-222106,NA,NA,NA,umaraokarumanchi@gmail.com,16.299628,80.433648
Andhra Pradesh,Guntur,HOS-HYD-3541,C.V.R Hospital,"H No:10-1-7, 1St Lane, Sambasivapet",522001,0863-2225708,NA,NA,NA,cvrhospitalgnt@gmail.com,16.298145,80.444895
Andhra Pradesh,Guntur,HOS-HYD-4085,Vijaya Clinic Of Orthopaedic Specialities,"13-8-152, 8Th Line, Vari Street",522001,0863-2222002,NA,NA,NA,ramtej9@gmail.com,16.313879,80.43429
Andhra Pradesh,Guntur,HOS-HYD-3066,Aswini Hospitals,"15-1-17, 150 M5 From Rtc Bus Stand",522001,0863-2227000,NA,NA,NA,avulasrinivas@hotmail.com,16.303005,80.446676
Andhra Pradesh,Guntur,HOS-HYD-4197,Dr.Ranga Rao Nursing Home Pvt Ltd,Old Club Road,522001,0863-2223479,NA,NA,NA,drrangaraonursinghome@gmail.com,16.299731,80.450539
Andhra Pradesh,Guntur,HOS-HYD-4560,Sravani Hospital,"13-1-16, Old Bank Road Kothapet Near Anna Srinivsarao Kalyanamandapam, K",522001,0863-2217842,NA,NA,NA,sravaniteja2002@gmail.com,16.297733,80.451201
Andhra Pradesh,Guntur,HOS-HYD-4840,Life Hospital,"Old Club Road, Kothapet",522001,0863-2244277,NA,NA,NA,lifegnt@gmail.com,16.299689,80.450668
Andhra Pradesh,Guntur,HOS-HYD-5606,Raghavendra Superspeciality Neuro Centre,"#12-25-10/A, Opp Indian Sprins School, Kothapet",522001,0863-6531099,NA,NA,NA,drnagasankar2003@yahoo.co.in,16.585259,80.517508
Andhra Pradesh,Guntur,HOS-HYD-5667,Chalasani Hospital,"12-12-94/A, Old Club Road, Kothapeta",522001,0863-2337610,NA,NA,NA,chalasanihospital@gmail.com,16.297918,80.44865
Andhra Pradesh,Guntur,HOS-HYD-6505,Sai Chandan Eye Hospital,"Ramireddy Thota, Near Mani Puram Bridge, City",522001,0863-2212748,NA,NA,NA,mpkr2009@hotmail.com,16.299051,80.43348
Andhra Pradesh,Guntur,HOS-HYD-6504,Amar Orthopaedic Hospital,"13-2-12, 1St Line Uvari Thota",522001,0863-2225751,NA,NA,NA,skmdbashahhms@gmail.com,16.307248,80.436548
Andhra Pradesh,Guntur,HOS-HYD-6506,Yerra'S Super Speciality Hospital,"12-23-3, Bhagath Singh Center, Kothapet",522001,0863-2223181,NA,NA,NA,rajesh_yerra@yahoo.com,16.298227,80.449785
Andhra Pradesh,Guntur,HOS-HYD-6519,Tulasi Multi Speciality Hospital,"5Th Lane, Guntur, -, Old Club Road",522001,0863-2323235,NA,NA,NA,tulasimultispecialityhospital@yahoo.com,16.299628,80.453904
Andhra Pradesh,Guntur,HOS-HYD-6522,Amma Children'S Hospital,"No.137-7-109/D, Old Club Road, Vari Thota",522001,0863-2266000,NA,NA,NA,ammachildrenhospital@yahoo.com,16.234907,80.652026
Andhra Pradesh,Guntur,HOS-HYD-6326,Guntur City Hospitals,"Old Clup Road, Kothapet",522001,0863-2237337,NA,NA,NA,gch.city5@gmail.com,16.302861,80.446698
Andhra Pradesh,Guntur,HOS-HYD-6462,Prasanthi Multi Speciality Hospital,"Bharatpet 1St Line, Gunturamravathi Road",522001,0863-2256146,NA,NA,NA,prasanthihospital@yahoo.com,16.315938,80.437725
Andhra Pradesh,Guntur,HOS-HYD-6568,Sri Krishna Institute Of Medical Sciences,Near Apsrtc Bus-Stand,522001,0863-2225777,NA,NA,NA,srikrishnaims@gmail.com,16.297589,80.441419
Andhra Pradesh,Guntur,HOS-HYD-6574,Sailaja Multispeciality Hospital,"7Th Line, Guntur-, Opp. R.T.C. Bus Stand Aryabhavan Hotel Back Side",522001,0863-2231700,NA,NA,NA,srinuhhms@gmail.com,16.304014,80.440089
Andhra Pradesh,Guntur,HOS-HYD-6595,Kanumuri Hospital,"D No.12, Sanakkayala Factory Road, Kothapet",522001,0863-2333000,NA,NA,NA,help@kanumurihospitals.com,16.585198,80.517508
Andhra Pradesh,Guntur,HOS-HYD-6738,Sri Ramachandra Children'S & Dental Hospital,"6Th Line, Gunturuu Arithota,",522001,0863-2323743,NA,NA,NA,srcanddh@gmail.com,16.298348,80.454684
Andhra Pradesh,Guntur,HOS-HYD-7476,Vasan Eye Care Hospital (A Unit Of Vasan Health Care P,"D. No: 12-25-174,Kothapet, Opp: Shivalayam, Guntur - 522001, Andhra Pradesh",522001,0863-3989000,NA,NA,NA,guntur.ap@vasaneye.in,16.300118,80.450181
Andhra Pradesh,Guntur,HOS-HYD-6535,Coastal Care Hospital,"8Th, Line, Old Club Road, Ivarithota, Kothapet, Opp Bus Stand",522001,0863-2249000,NA,NA,NA,muralihhms@gmail.com,16.585177,80.517508
Andhra Pradesh,Guntur,HOS-HYD-013647,Sri Renuka Nethralayam,"#12-18-26, Muppirisetty Vari Veedhi, Kothapet",522001,0863-2225767,NA,NA,NA,srirenukanethralayam@gmail.com,16.298773,80.4465321
Andhra Pradesh,Guntur,HOS-HYD-014235,Prof.D Ramakotaiah Childern'S Hospital,"D.No-12-25-24, Kothapet",522001,0863-2254477,NA,NA,NA,drrameshdavuluri@gmail.com,16.3001593,80.4475513
Andhra Pradesh,Guntur,HOS-HYD-014646,Vedanta Hospital,"Beside Vasavi Cloth Market, Mangalagiri Road",522001,0863-2227277,NA,NA,NA,vedantahospitals1@gmail.com,16.307142,80.4613193
Andhra Pradesh,Guntur,HOS-HYD-014291,Sri Vasudha Hospitals,"Opp. D.S Kalyan Mandapam,Kothapet",522001,0863-2329762,NA,NA,NA,vasudhahospitals1@gmail.com,0,0
Andhra Pradesh,Guntur,HOS-HYD-014704,Star Hospital,"Block No 3, Mangala Mandiram Compound, Old Club Road, Guntur",522001,0863-2268881,NA,NA,NA,starhospitalsguntur@gmail.com,16.2988238,80.4506614
Andhra Pradesh,Guntur,HOS-HYD-014928,Guntur Kidney & Multi Speciality Hospital,"# 15-11-1/10, Near Padmaja Petrol Bunk, Mangalagiri Road, Guntur",522001,7729988283,NA,NA,NA,gkmhospitalsguntur@gmail.com,16.2991928,80.3802863
Andhra Pradesh,Guntur,HOS-HYD-014811,Sree Prathima Super Speciality Hospital,"D. No-12-11-648, 1st Line,Ramireddy Thota,Beside Manipuram Bridge",522001,0863-2353255,NA,NA,NA,sreeprathimahospital@gmail.com,16.299063,80.456246
Andhra Pradesh,Guntur,HOS-HYD-015198,A1 Hospital,"# 12-1-36, Anna Srinivasa Rao Kalyana Mandapam Road, Kothapet",522001,0863-2254321,NA,NA,NA,a1orthocare@gmail.com,16.296898,80.449939
Andhra Pradesh,Guntur,HOS-HYD-015254,Sri Balaji Hospital,"D. No: 51-22-526, Yadavallivari Street, Kothapet",522001,0863-2322355,NA,NA,NA,sribalajihospitalguntur@gmail.com,16.2861218,80.4462117
Andhra Pradesh,Guntur,HOS-HYD-015063,Mallika Spine Centre,"12-12-30,Beside Andhra Bank,Old Club Road,Kothapet",522001,0863-6536111,NA,NA,NA,mallikaspinecentregnt@gmail.com,16.2990634,80.4507311
Andhra Pradesh,Guntur,HOS-HYD-012031,Anjani Super Speciality Hospital,"D No. 12-12-34 Near Bose Statue, Old Club Road, Kothapet",522001,0863-2222773,NA,NA,NA,anjanisshospitals@gmail.com,16.2990634,80.4507311
Andhra Pradesh,Guntur,HOS-HYD-013012,Lakshmi Srinivasa Hospital,"D No 15-1-29, Near R.T.C Bus Stand, Manipuram Bridge",522001,0863-2235709,NA,NA,NA,lakshmisrinivasahospital@yahoo.com,16.2862773,80.4576835
Andhra Pradesh,Guntur,HOS-HYD-016025,Omega Hospital (A Unit of Guntur Institute of Oncology,"D. No. 55-1-11, Meher Nagar, Behind Meher Baba Temple, Autonagar",522001,0863-2223300,NA,NA,NA,corporate@omegahospital.com,16.2948373,80.4557503
Andhra Pradesh,Guntur,HOS-HYD-016059,Viswas Hospital,"# 13-6-98, Old Clud Road",522001,0863-2323701,NA,NA,NA,viswashospital.gnt@gmail.com,17.6853521,83.0079371
Andhra Pradesh,Guntur,HOS-HYD-200,Hi-Tech Trauma & Critical Care Hospitals Ltd.,"6-29-34/A, Lodge Center Amaravathi Road",522002,0863-240687,NA,NA,NA,hitech4gnt@gmail.com,16.331918,80.438706
Andhra Pradesh,Guntur,HOS-HYD-3108,Janardani Hospital,Gowrisankar Theatre Road,522002,0863-2222083,NA,NA,NA,NA,16.30317,80.446676
Andhra Pradesh,Guntur,HOS-HYD-3019,Childrens Hospital,"6-11-58/59, 11Th Lane, 2Nd Cross, Arundelpet",522002,0863-2233567,NA,NA,NA,y_surendra@rediffmail.com,16.304529,80.437557
Andhra Pradesh,Guntur,HOS-HYD-4656,B.M.R Hospitals,"6Th Lane, 2Nd Cross, Arundelpet",522002,0863-2241370,NA,NA,NA,bmrhospitals@hotmail.com,16.305724,80.440239
Andhra Pradesh,Guntur,HOS-HYD-5888,M.N. Hospital,"# 4/10, Brodiepet, 5-37-77 Opp Siticable Office",522002,0863-2217171,NA,NA,NA,mnhospital@gmail.com,16.302923,80.446655
Andhra Pradesh,Guntur,HOS-HYD-6427,Ahalya Nursing Home,"Back Side Sivaayam Temple, Kothapet",522002,0863-2225105,NA,NA,NA,ahalyanursinghome@yahoo.com,16.30074,80.44751
Andhra Pradesh,Guntur,HOS-HYD-015403,Help Hospital,"4/5th Arundelpet, Beside Of Kennedy School",522002,0863-265559,NA,NA,NA,helphospitalguntur@gmail.com,16.3046364,80.4443766
Andhra Pradesh,Guntur,HOS-HYD-1335,St. Joseph'S General Hospital,"Opp. AC College, Near Fly over,Main Road, Arundelpet",522004,0863-2322700,NA,NA,NA,stjosephshospitalgnt@gmail.com,16.298124,80.440625
Andhra Pradesh,Guntur,HOS-HYD-2998,Nandana Multicare Hospital,"4Th Line, Kannavari Thota",522004,0863-2240669,NA,NA,NA,nandana.hospital@yahoo.com,16.29798,80.435665
Andhra Pradesh,Guntur,HOS-HYD-013534,Raja Childrens Hospital,"Near Venkateswaraswamy Vari Kalyana Mandapam, R.Agraharam, Mainroad",522004,0863-2241442,NA,NA,NA,rajachildrenshospital@gmail.com,16.317262,80.392045
Andhra Pradesh,Guntur,HOS-HYD-014644,Dr. Ramesh Cardiac And Multispeciality Hospital Pvt Lt,"Collector Office Road, Guntur",522004,0836-2377777,NA,NA,NA,credit@rameshhospitals.com,0,0
Andhra Pradesh,Guntur,HOS-HYD-202,Hyma Hospitals (Pvt) Ltd.,"Main Road, Pattabhipuram",522006,0863-2231564,NA,NA,NA,tagore_are@yahoo.com,16.306733,80.417408
Andhra Pradesh,Guntur,HOS-HYD-015563,Praja Vydyasala,"Gujja Nagudla, Guntur",522006,0863-2351594,NA,NA,NA,prajavydyasalagnt@gmail.com,16.3249217,80.4146336
Andhra Pradesh,Guntur,HOS-HYD-3264,Vijaya Eye Hospital,"5-87-104, 2Nd Line, Lakshmipuram",522007,0863-2235344,NA,NA,NA,SRINIVASVEH@GMAIL.COM,16.309946,80.43157
Andhra Pradesh,Guntur,HOS-HYD-3779,Sri Geetha Eye Hospital,"No.5-91-2, 4Th Line, Laxmipuram, Opp. L.V.R & Sons Club, Behind Harihara Mah",522007,0863-2233156,NA,NA,NA,srigeethanetralaya@gmail.com,16.31079,80.43412
Andhra Pradesh,Guntur,HOS-HYD-4648,Lakshmi Nursing Home,"5-87-18, Lakshmi Puram Main Road",522007,0863-2232345,NA,NA,NA,drlakshmi49@yahoo.com,16.310296,80.431674
Andhra Pradesh,Guntur,HOS-HYD-009660,Sanjivi Orthopaedic And Physiotherapy Centre,"4Th Line, Lakshmipuram, Main Road",522007,0863-2241644,NA,NA,NA,sanjivihospital@gmail.com,16.3104681,80.4309499
Andhra Pradesh,Guntur,HOS-HYD-4152,Katuri Medical College & Hospital,"Katuri Nagar, Chinakondrupadu Village",522019,0863-2288555,NA,NA,NA,kmchint@rediffmail.com,16.311573,80.439732
Andhra Pradesh,Guntur,HOS-HYD-3003,Adilakshmi Nursing Home,"G.B.C. Raod, Ponnur",522124,08643-242978,NA,NA,NA,NA,16.062393,80.54952
Andhra Pradesh,Guntur,HOS-HYD-3022,Krishna Nursing Home Ponnur,"Gbc Road, Ponnur",522124,08643-243117,NA,NA,NA,venkataramanarao12@gmail.com,16.299504,80.43352
Andhra Pradesh,Guntur,HOS-HYD-3021,Vijaya Sarada Nursing Home,"Nethaji Nagar, Ponnur",522124,08643-242274,NA,NA,NA,funnykriss@gmail.com,16.065836,80.553171
Andhra Pradesh,Guntur,HOS-HYD-3846,Datta Prasad Orthopaedic Nursing Home,"D.No#14-8-38.Netajinagar, 2Nd Lane, Ponnur",522124,08643-246589,NA,NA,NA,NA,16.07064,80.547539
Andhra Pradesh,Guntur,HOS-HYD-3028,Dr. Sajja Chandramouli Hospital,"G-B-C- Road, Ponnur",522124,08643-242004,NA,NA,NA,sajja12345@gmail.com,16.062434,80.549691
Andhra Pradesh,Guntur,HOS-HYD-3496,Srinivasa Nursing Home,"17-4-17, S.P.. Road, Ponnur",522201,08643-242116,NA,NA,NA,doctormkrao@gmail.com,16.299957,80.452917
Andhra Pradesh,Guntur,HOS-HYD-3493,Sri Srinivasa Nursing Home,"Mulukutla Vari Street, Kothapet, Tenali",522201,08644-226130,NA,NA,NA,NA,16.58528,80.517358
Andhra Pradesh,Guntur,HOS-HYD-3905,Dr.Chadalavada Krishnaiah Multispeciality Hospital,"Ganaganamma Peta, Prakasam Road, Tenali",522201,08644-559415,NA,NA,NA,tenali.kims@gmail.com,16.243724,80.647155
Andhra Pradesh,Guntur,HOS-HYD-7520,Amrutha Nursing Home,"7-14-4, Battavart, St. Ganganammapet, Tenali",522201,08644-232780,NA,NA,NA,amruthanursinghometenali@gmail.com,16.242476,80.639259
Andhra Pradesh,Guntur,HOS-HYD-3494,Sri Sai Rupa Netralayam,"10-14-66, Near Old State Bank, Repalle",522265,08648-223747,NA,NA,NA,srirupanetralayam@gmail.com,16.019828,80.840479
Andhra Pradesh,Guntur,HOS-HYD-3495,Vyshnavi Nursing Home,"11-16-137, Kota Vari Street, Repalle",522265,08648-225999,NA,NA,NA,vyshnavinursinghome1@gmail.com,16.019581,80.840565
Andhra Pradesh,Guntur,HOS-HYD-3002,Sri V.R.M. Nursing Home,Repalle,522265,08648-222078,NA,NA,NA,repallemca@gmail.com,16.020158,80.840394
Andhra Pradesh,Guntur,HOS-HYD-014295,Mother Teresa Hospital,"Opp. R & B - Bunglow, Maaykaavari Street, Near Bus & Railway Station",522265,08648-222699,NA,NA,NA,motherteresahospitals@gmail.com,16.0193083,80.8288691
Andhra Pradesh,Guntur,HOS-HYD-3024,Sri Evuru Subbarao Memorial Nursing Home,"Main Road, Gullapalli, Cherukupalli",522309,08648-247214,NA,NA,NA,ganesh.evuru@rediffmail.com,16.054598,80.683974
Andhra Pradesh,Guntur,HOS-HYD-3426,Sri Lakshmi Nursing Home,Gollamudivari Veedi,522403,08641-232111,NA,NA,NA,NA,16.29971,80.43412
Andhra Pradesh,Guntur,HOS-HYD-3890,Kanumuri Nursing Home,"Behind Sai Baba Complex, Main Road Sattenapalli",522403,08641-232080,NA,NA,NA,vasukanumuri@yahoo.co.in,16.398254,80.151695
Andhra Pradesh,Guntur,HOS-HYD-3004,Sree Radha Krishna Nursing Home,"9-3-18, Old Bus Stand, Sattenapalli",522403,08641-232227,NA,NA,NA,arunapotlal@gmail.com,16.398089,80.151609
Andhra Pradesh,Guntur,HOS-HYD-3073,Vamsee Specialities Hospital,"8-5-19, Opp Srq Sattennppali",522403,08641-232133,NA,NA,NA,puli_sr@hotmail.com,16.313879,80.43635
Andhra Pradesh,Guntur,HOS-HYD-3023,Dr. Anji Reddy Multi-Speciality Hospital Pvt Ltd,"16/682, Piduguralla Main Road",522413,08649-254001,NA,NA,NA,venkatramaiah68@gmail.com,16.515099,79.889626
Andhra Pradesh,Guntur,HOS-HYD-015200,Palnadu hospital,"No 7-234 Main Road, Pidguralla",522413,08649-256060,NA,NA,NA,palnaduhospital@gmail.com,16.4800032,79.8895026
Andhra Pradesh,Guntur,HOS-HYD-3007,Srikanth Nursing Home,"Dr. Challagunda, Sri Rama Murthy # 14-411- Sri Rama Puram, Gurazala",522415,08649-248501,NA,NA,NA,NA,16.55805,79.633063
Andhra Pradesh,Guntur,HOS-HYD-3015,Ramakrishna Hospitals,"Rama Talkies Lane, Macherla",522426,08642-222047,NA,NA,NA,NA,16.479218,79.443842
Andhra Pradesh,Guntur,HOS-HYD-015404,Vunnam Hospital,"16-567, Main Road, Piduguralla",522493,08649-252289,NA,NA,NA,vunnamhospitals@gmail.com,16.2893144,80.4604643
Andhra Pradesh,Guntur,HOS-HYD-4233,Manipal Hospitals (Jaipur) Private Limited,"NH 5, Soumya Nagar, Near Varadhi, Tadepalli",522501,0866-2469700,NA,NA,NA,credit.billingvijayawada@manipalhospitals.com,16.481522,80.601698
Andhra Pradesh,Guntur,HOS-HYD-3935,Nri Academy Of Sciences,"Chinakakani, Mangalagiri Mandal. District",522503,08645-236777,NA,NA,NA,creditbilling@nrias.ac.in,16.429499,80.553028
Andhra Pradesh,Guntur,HOS-HYD-015344,American Oncology Institute (A Unit Of Cancer Treatme,"6-224/2, NRI Hospital , Chinnakakani, Mangalagiri Road",522503,08645-304050,NA,NA,NA,aoicorp.ap@americanoncology.com,16.4349096,80.5687692
Andhra Pradesh,Guntur,HOS-HYD-4148,Sankara Eye Hospital ( A Unit Of Sri Kanchi Kama Koti,"Pedakakani, Vijaywada Highway",522509,0863-2293903,NA,NA,NA,tpabilling.gnt@sankaraeye.com,16.358356,80.491282
Andhra Pradesh,Guntur,HOS-HYD-3012,Bommidala Cancer Institute,Peda Kakani,522509,0863-2556162,NA,NA,NA,snryellampalli@rediffmail.com,16.334636,80.487187
Andhra Pradesh,Guntur,HOS-HYD-3412,Siva Nursing Home,"2-15-56/1, Rajagari Kote, Narasaraopet",522601,08647-222255,NA,NA,NA,NA,16.238244,80.054871
Andhra Pradesh,Guntur,HOS-HYD-3025,Sri Lakshmi Janaki Nursing Home,"9-7-50, Arundelpet, Near Angel Talkies, Narasaraopet",522601,08647-223627,NA,NA,NA,drkarchekuri@gmail.com,16.305662,80.440325
Andhra Pradesh,Guntur,HOS-HYD-3017,Aswini Netralayam,"Guntur Road, Narasaraopet",522601,08647-222761,NA,NA,NA,aswininethralayam@gmail.com,16.238574,80.05427
Andhra Pradesh,Guntur,HOS-HYD-3006,Amulya Nursing Home,"Road, Narasaraopet",522601,040-8642223625,NA,NA,NA,amulyanursinghome@gmail.com,16.238327,80.054528
Andhra Pradesh,Guntur,HOS-HYD-015171,Sri Datta Super Speciality Hospitals,"Beside Town Hall, Prakash Nagar, Narasaraopet",522601,08647-231309,NA,NA,NA,sridattahospitaltpa@gmail.com,16.2280156,80.0465067
Andhra Pradesh,Guntur,HOS-HYD-015828,Varababu Super Speciality Hospital,"Kannela Hospital, Prakash Nagar, Narasarao Pet",522601,08647-232888,NA,NA,NA,varababuhospitals@gmail.com,16.2280156,80.0465067
Andhra Pradesh,Guntur,HOS-HYD-015990,Sri Srinivasa Mother & Child Hospital,"D.NO 5-5-78/38, Palnadu Road, Narasa Rao Pet",522601,08647-226678,NA,NA,NA,srinihospital@gmail.com,16.2353506,80.0479039
Andhra Pradesh,Guntur,HOS-HYD-015834,Veeraiah Chowdary Ortho Trauma & Multi Speciality Ho,"Over Birdge Entrance, Vinukonda Road, Narasaraopet",522601,08647-231333,NA,NA,NA,veeraiahchowdaryhospital@gmail.com,16.2296948,80.0399427
Andhra Pradesh,Guntur,HOS-HYD-4507,Sriratna Laxmi Nursing Home,"16-300, Kalamandir Centre, Chilkaluripet",522616,08647-253144,NA,NA,NA,snap_lavu@yahoo.com,16.126304,80.17115
Andhra Pradesh,Guntur,HOS-HYD-3018,Janaki Nursing Home,"N.R.T. Centre, Chilakaluripet",522616,08647-254135,NA,NA,NA,drhrmuppalla@gmail.com,16.091753,80.169369
Andhra Pradesh,Guntur,HOS-HYD-5919,Pragathi Nursing Home,Pragathi Marellavari Ma Rellavari Street Police Station Road Chikaluripet,522616,08647-253253,NA,NA,NA,kollaamar@gmail.com,16.315197,80.435663
Andhra Pradesh,Guntur,HOS-HYD-3016,Sajana Nursing Home,"Palnad Road, Vinukonda",522647,08646-272323,NA,NA,NA,NA,16.051917,79.740302
Andhra Pradesh,Guntur,HOS-HYD-3020,G. Showreddy Memorial Nursing Home,"Planadu Road, Near Bus Stand, Vinukonda",522647,08646-273226,NA,NA,NA,NA,16.051917,79.740988
Andhra Pradesh,Guntur,HOS-HYD-2999,Sri Sanjivi Hospital,"Palnad Road, Vinukonda",522647,08646-275496,NA,NA,NA,drbhargavi@gmail.com,16.051752,79.740731
Andhra Pradesh,Kadapa,HOS-HYD-015676,Surya Hospital,"1/334, Maruthi Nagar, Near R.T.C Bust stand",516001,0852-251999,NA,NA,NA,suryahospital.kadapa@gmail.com,14.4668726,78.8289999
Andhra Pradesh,Kadapa,HOS-HYD-014208,Vidyasagar Hospital,"# 1/700-3, Dawrakanagar, Kadapa",516004,0856-244245,NA,NA,NA,orthovidya@gmail.com,14.4783475,78.821275
Andhra Pradesh,Kadapa,HOS-HYD-015308,Mrudula Hospital,"1/102, George Reddy Street, Yerramukkapalli",516004,08562-242244,NA,NA,NA,mrudulahospital123@gmail.com,14.3832718,78.8722341
Andhra Pradesh,Kakinada,HOS-HYD-1091,Vijaya Nursing Home,"Jawarhar Street, Ner Pindal Tank.Tank , East",533001,0884-2362770,NA,NA,NA,vijayanursinghome@yahoo.com,16.958456,82.233426
Andhra Pradesh,Kakinada,HOS-HYD-3107,Sai Sudha Hospital,"D.No.21-1-24, Jawahar St., Salipeta, East Godavari",533001,0884-2345979,NA,NA,NA,saisudhahospital@gmail.com,16.955296,82.232145
Andhra Pradesh,Kakinada,HOS-HYD-5664,Siddhartha Hospital,"34-1-20, Temple Street, Kakinada",533001,0884-2368521,NA,NA,NA,venkatesh_mootha@yahoo.com,16.947578,82.231847
Andhra Pradesh,Kakinada,HOS-HYD-5698,Sree Bala Nursing Home Sref Bala Ent Care Center,"12-2-24, Dantuvari Street",533001,0884-2385499,NA,NA,NA,sreebalaent@gmail.com,17.017394,82.224014
Andhra Pradesh,Kakinada,HOS-HYD-6502,Seven Star Super Speciality Hospital,"Opp. Lic Building, Main Road",533001,0884-2388888,NA,NA,NA,7starhospital@gmail.com,16.957718,82.235743
Andhra Pradesh,Kakinada,HOS-HYD-7477,Vasan Eye Care Hospital (A Unit Of Vasan Health Care P,"6-1-37,Suryaraopeta, Kakinada - 533002, Andhra Pradesh",533002,0884-3989000,NA,NA,NA,kakinada.ap@vasaneye.in,16.963133,82.234275
Andhra Pradesh,Kakinada,HOS-HYD-3572,Nayana Eye Care,"D.No.2-1-50, Srinagar Bhanugudi Junction , Eg Dist",533003,0884-6599000,NA,NA,NA,nayanaeyecare@gmail.com,16.976353,82.236417
Andhra Pradesh,Kakinada,HOS-HYD-4064,Sri Hospitals,"2-24-8, Srinagar, Opp-Janma Bhoomi Park",533003,0884-2348181,NA,NA,NA,nunnanr@rediffmail.com,16.973357,82.23822
Andhra Pradesh,Kakinada,HOS-HYD-5989,Srujana Multispeciality Hospital,"#2-27-24/1, Gokul Street Srinagar",533003,0884-2361669,NA,NA,NA,srujanaivf@gmail.com,16.975368,82.24088
Andhra Pradesh,Kakinada,HOS-HYD-013741,Laxmi Hospital,"#3-16-207, Sri Vidya Colony, East Godavari",533003,0884-2389000,NA,NA,NA,laxmihospitalkkd@gmail.com,16.972469,82.248442
Andhra Pradesh,Kakinada,HOS-HYD-49,Raghava 24 Hours Emergency Hospital,"11-3-12, Vet Hospital Road",533004,0884-2373737,NA,NA,NA,raghava24hr@gmail.com,16.964942,82.228276
Andhra Pradesh,Kakinada,HOS-HYD-3536,Sri Sai Raghavendra Super Specialities Hospital,"D.No.8-5-19/1, Ontimamidi Junction, Venkatanarayana Street, Gandhinagar",533004,0884-2364772,NA,NA,NA,saireghavendra@rediffmail.com,16.967118,82.224549
Andhra Pradesh,Kakinada,HOS-HYD-4238,Ravichandra Hospital,"11-5-10, Gopalakrishna Street, Ramaraopeta",533004,0884-2374451,NA,NA,NA,beeraka2@yahoo.com,16.966338,82.229048
Andhra Pradesh,Kakinada,HOS-HYD-6534,Sri Gowthami Multi Speciality Hospital,"Nageswara Rao Street, Ramarao Pet",533004,0884-2376250,NA,NA,NA,srigowthaminh@gmail.com,16.964696,82.22957
Andhra Pradesh,Kakinada,HOS-HYD-5727,Surya Global Hospitals,"MadhavaPatnam Junction, Samalkot Road, Kakinada",533005,0884-2326001,NA,NA,NA,suryaglobalhospitals@gmail.com,17.006888,82.224014
Andhra Pradesh,Kakinada,HOS-HYD-6064,Sri Kiran Institute Of Ophthalmology,A P S P Camp Post Penumarthi Road East Godavari,533005,0884-2306301,NA,NA,NA,info@srikiran.org,17.024821,82.258798
Andhra Pradesh,Kakinada,HOS-HYD-6139,Sarvottam Healthcare Private Limited (Trust Hospital),3-29 Sarpavaram Junction,533005,0884-2382381,NA,NA,NA,kkdtrust@gmail.com,16.995233,82.245515
Andhra Pradesh,Kakinada,HOS-HYD-007940,Nephroplus Dialysis Center,"SURYA GLOBAL HOSPITAL, D. No. 1/82/A, Samarlakota Road, Madhavapatnam,",533005,040-40184120,NA,NA,NA,insurance@nephroplus.com,16.9904415,82.2067063
Andhra Pradesh,Khammam,HOS-HYD-015628,Akhila Eye Hospital,"11-4-49, Dr. Harish Marg, Nehru Nagar",507002,08742-232422,NA,NA,NA,tpa@akhilaeye.in,17.2307538,80.1372757
Andhra Pradesh,Krishna,HOS-HYD-5643,Modern Retina Centre,"#29-27-5, Kaleswara Rao Road",520002,0866-2440337,NA,NA,NA,modernretinacentre@yahoo.in,16.542747,80.602364
Andhra Pradesh,Krishna,HOS-HYD-5387,Sri Venkata Sai Urology & Maternity Centre,"29-4-6, Kodandaramireddi Street, Near Elur Road",520002,0866-2434386,NA,NA,NA,svsumc@gmail.com,16.554594,80.643562
Andhra Pradesh,Krishna,HOS-HYD-7517,Gayathri Women & Child Care Hospitals,"29-13-43/1, Kaleswar Rao Road, Suryaraopet",520002,0866-6671234,NA,NA,NA,gayathrihospitalsvja@gmail.com,16.509819,80.637485
Andhra Pradesh,Krishna,HOS-HYD-5508,The Pujitha Hospital,"59A-15-31, Pantakaluva Road, N.T.R.Circle, Patamata, Vijayawada",520010,0866-2495622,NA,NA,NA,drkarlapudi@rediffmail.com,16.530898,80.658669
Andhra Pradesh,Krishna,HOS-HYD-4901,Padmavathi Hospitals,"#10/145, Rajendra Nagav(Main Line)",521301,08674-242097,NA,NA,NA,mannemshantar@yahoo.com,16.475596,80.981392
Andhra Pradesh,Kuppam,HOS-HYD-3235,P.E.S. Institute Of Medical Sciences & Research Hospital,Chittoor District,517425,08570-256666,NA,NA,NA,cashlessservices.pesimsr@gmail.com,12.798745,78.365084
Andhra Pradesh,Kurnool,HOS-HYD-6503,Balaji Hospital,Balaji Hospital 43/19 N.R. Peta,500001,08518-221227,NA,NA,NA,raghuporal@gmail.com,15.827682,78.046807
Andhra Pradesh,Kurnool,HOS-HYD-2907,Padma Chandra Kidney Centre Super Speciality Hospit,"Nalanda Complex, Beside Hotel Raj Vihar",518001,08518-279601,NA,NA,NA,padmachandrahospital@gmail.com,15.829953,78.043975
Andhra Pradesh,Kurnool,HOS-HYD-4834,New Balaji Super Speciality Hospital,"43/19-20, N.R.Peta",518001,08518-222650,NA,NA,NA,NA,15.838004,78.04197
Andhra Pradesh,Kurnool,HOS-HYD-014911,Omni Hospital (A Unit Of Incor Padmachandra Hospital,"46-93-35-1, Budhawar Peta, Kurnool",518001,08518-277188,NA,NA,NA,insurancekurnool@omnihospitals.in,15.822469,78.0394736
Andhra Pradesh,Kurnool,HOS-HYD-1188,Gowri Gopal Hospital Pvt Ltd,"D.No. 46-87, Budhawara Peta",518002,08518-255499,NA,NA,NA,gghospitalknl@rediffmail.com,15.826278,78.040768
Andhra Pradesh,Kurnool,HOS-HYD-53,Vijaya Hospital,"Revenue Colony, Ndl Road",518002,08518-271008,NA,NA,NA,vijayaknl271009@gmail.com,15.804559,78.047034
Andhra Pradesh,Kurnool,HOS-HYD-2963,Viswa Bharathi Super Speciality Hospital,Gayathri Estates,518002,08518-229966,NA,NA,NA,viswabharathihospital@yahoo.com,15.813623,78.037795
Andhra Pradesh,Kurnool,HOS-HYD-3831,Sri Vijaya Durga Cardiac Centre,"# 50/760/8-114, Gayathri Estate, Near Visvesvaraya Circle, Gooty Road",518002,08518-277567,NA,NA,NA,allamvasant@yahoo.com,15.823347,78.04625
Andhra Pradesh,Kurnool,HOS-HYD-3886,Kurnool Heart And Brain Centre,"46-1-1-K-B-4, Sapthagiri Nagar, A Camp Extension",518002,08518-279579,NA,NA,NA,khmsh766@gmail.com,15.823636,78.035494
Andhra Pradesh,Kurnool,HOS-HYD-4493,Suseela Netralaya & Maternity Hospital,"46-89-10, Buddhawarpeta",518002,08518-255178,NA,NA,NA,sudhakar.snmh@gmail.com,15.815708,78.038451
Andhra Pradesh,Kurnool,HOS-HYD-6061,Modern Eye Hospital & Research Centre,#50 760 A 127 2 A C P R Mansion Behind Satyanarayana Swamy,518002,08518-235050,NA,NA,NA,mehkurnool@gmail.com,15.81418,78.040048
Andhra Pradesh,Kurnool,HOS-HYD-014523,Sri Chakra Hospital,"D No 46/735, Budhawar Peth, Near III Town Police Station",518002,08518-277995,NA,NA,NA,srichakra.hospital@yahoo.in,15.8197232,78.0417332
Andhra Pradesh,Kurnool,HOS-HYD-014583,Nephroplus Dialysis Center,"Gowri Gopal Hospital, H.no  46-87, Budhawarpeta, Kurnool, Andhra Pradesh.",518002,08518-277039,NA,NA,NA,insurance@nephroplus.com,15.6074215,78.0815953
Andhra Pradesh,Kurnool,HOS-HYD-008261,Vasan Eye Care Hospital-Kurnool,"#46/87/57-1 Kami Setty Acradewoodland Compound, Bhudwar pet",518002,08518-302000,NA,NA,NA,kurnool.ap@vasaneye.in,15.8281257,78.0372792
Andhra Pradesh,Kurnool,HOS-HYD-016022,Kurnool Rainbow Hospital Pvt Ltd,"Plot No. 27 & 28, Johara Puram Road, Kurnool",518002,08518-244244,NA,NA,NA,kurnoolrainbowhospitalspvtltd@gmail.com,15.8132473,78.0564428
Andhra Pradesh,Kurnool,HOS-HYD-010081,Amma Hospital,"Plot No.87/654-1, Madhavi Nagar, Near Shiva Ramalayam, Nandyal Road",518002,08518-272379,NA,NA,NA,ammahospital_272379@yahoo.co.in,15.8038136,78.0571178
Andhra Pradesh,Kurnool,HOS-HYD-014522,Surya Hospital,"Near New Ayyappaswamy Temple, Johara Puram Road, Saptagiri Nagar",518002,08518-255503,NA,NA,NA,suryahospital.knl@gmail.com,15.8281257,78.0372792
Andhra Pradesh,Kurnool,HOS-HYD-010081,Amma Hospital,"87/654-1A, Nandyal Road, Madhava Nagar",518002,08518-272379,NA,NA,NA,ammahospital_272379@yahoo.co.in,15.8038136,78.0571178
Andhra Pradesh,Kurnool,HOS-HYD-016069,VR Multi Speciality Hospital,"NO: 44/166, 44/167-A, Prakash Nagar, Sunkesula Road, Kurnool",518002,8332844455,NA,NA,NA,vrmultispecialityhospital@gmail.com,15.8358026,77.9944078
Andhra Pradesh,Kurnool,HOS-HYD-4676,Aayushman The Family Hospital,"D.No.45/145A1, Venkataramana Colony",518003,08518-254004,NA,NA,NA,ayushmanth@hotmail.com,15.841472,78.026422
Andhra Pradesh,Kurnool,HOS-HYD-015477,Omega Hospitals (Kurnool Institute Of Oncology Pvt Lt,"Plot No-178 & 173, Judical Colony",518003,08518-27301,NA,NA,NA,omegahospitals.in@gmail.com,15.7847523,78.0148394
Andhra Pradesh,Kurnool,HOS-HYD-2905,Noble Multi Speciality Hospital,"#43-194-2A,Opp. Muncipal Office, 7Th Lane, N.R. Peta",518004,08518-228158,NA,NA,NA,shankar.rsiva@gmail.com,15.827765,78.047022
Andhra Pradesh,Kurnool,HOS-HYD-2902,Siri Noble Hospital,"44-16-g 45, Sunkesula Road",518004,08518-222622,NA,NA,NA,dvr_ramana@yahoo.co.in,15.844444,78.033288
Andhra Pradesh,Kurnool,HOS-HYD-3462,R.R. Hospital,Bhagyanagar,518004,08518-225414,NA,NA,NA,bretthart2000@gmail.com,15.830324,78.035532
Andhra Pradesh,Kurnool,HOS-HYD-7709,SGR Hospitals,"D.No.40-447-18,Gipson Volony,Kurnool",518004,08518-289299,NA,NA,NA,yasmin.siraj@rediffmail.com,15.832174,78.038541
Andhra Pradesh,Kurnool,HOS-HYD-3786,Aditya Nursing Home,"No.1/541-135, Aas College Road, Adoni",518302,08512-231006,NA,NA,NA,rnisarawwed@gmail.com,15.628823,77.272141
Andhra Pradesh,Kurnool,HOS-HYD-4686,Neravati Hospital,"Hno 1-184A, Gandhi Chowk, Nandyal",518501,08514-221111,NA,NA,NA,drvinodent@yahoo.co.in,15.485197,78.482968
Andhra Pradesh,Kurnool,HOS-HYD-6142,Narmada Nursing Home,21/125-15B Bye Pass Roadnandyal,518501,08514-247531,NA,NA,NA,cdchakri50@gmail.com,15.530437,78.368019
Andhra Pradesh,Kurnool,HOS-HYD-6612,Sree Ashwini Hospitals,"Door No-50-760-A-85-A, Gayathri Estates",518502,08518-230498,NA,NA,NA,sriashwinihospitals@gmail.com,15.81354,78.038117
Andhra Pradesh,Machilipatnam,HOS-HYD-3170,Brundavan Nursing Home,"# 24/588- Railway Station Road, Rajavari Centre",521001,08672-222295,NA,NA,NA,brundavannursinghome@gmail.com,16.188629,81.136067
Andhra Pradesh,Machilipatnam,HOS-HYD-6081,Lakshmi Women'S Hospital,"D.No.23/399 Ramanaidupet , Krishna",521001,08672-220004,NA,NA,NA,lakshmimkv@yahoo.com,16.195958,81.141877
Andhra Pradesh,Machilipatnam,HOS-HYD-6083,Viswachakra Orthopaedic Hospital,"D. No. 26/323, Buttaipet, Ramanaidupeta, Machilipatnam",521001,08672-225200,NA,NA,NA,viswachakramachilipatnam@gmail.com,16.178336,81.136576
Andhra Pradesh,Machilipatnam,HOS-HYD-014663,Andhra Hospital,"4/124, 125,Rajpuet, Machilipatnam",521001,08672-221199,NA,NA,NA,ah4mtmempanelments@gmail.com,16.1758542,81.1228122
Andhra Pradesh,Madanapalle,HOS-HYD-5720,Chandra Mohan'S Nursing Home,"14-2A, C.T.M. Road, Beside Icici Bank",517325,08571-222881,NA,NA,NA,drchandramohanchetty@gmail.com,13.553052,78.500379
Andhra Pradesh,Madanapalle,HOS-HYD-015961,Suthrama Eye Hospital,"D.No.03-237, Opp Bapuji Park, CTM Road",517325,08571-228585,NA,NA,NA,npraveenkanth@gmail.com,13.5603491,78.5036065
Andhra Pradesh,Miryalaguda,HOS-HYD-5469,Abhi Sai Hospitals,"Doctor'S Colony,",508207,08689-245014,NA,NA,NA,abhisaihospitals@hotmail.com,16.869461,79.562813
Andhra Pradesh,Nandyal,HOS-HYD-1718,Madhumani Nursing Home,"# 2-444C, Balaji Complex, Kurnool",518501,08514-243210,NA,NA,NA,madhumaninursinghome@gmail.com,15.485693,78.483826
Andhra Pradesh,Nandyal,HOS-HYD-6517,Sai Vani Hospital,"25-395/D5, Danielpuram, Near St.Joseph Church, Nandyal, Kurnool",518501,08514-240266,NA,NA,NA,kanthaambati.vani@gmail.com,15.485114,78.482968
Andhra Pradesh,Narsaraopet,HOS-HYD-4113,Teja Nursing Home,"5-2-3, Prathipativari Veedhi, Narasaraopet",522601,08647-223144,NA,NA,NA,rp_botla@yahoo.com,16.238162,80.054957
Andhra Pradesh,Narsaraopet,HOS-HYD-3030,Visweswara & Gopalkrishna Nursing Home,Rajagari Kota,522601,08647-222359,NA,NA,NA,peddaiah_marri@yahoo.co.in,16.238718,80.054559
Andhra Pradesh,Narsaraopet,HOS-HYD-6509,Mother Theresa Multi Speciality Hospital,"#5-1-17, Palnadu Road, Guntur",522601,08647-220626,NA,NA,NA,cn.medsys@gmail.com,16.238574,80.055043
Andhra Pradesh,Narsaraopet,HOS-HYD-5905,Venkateshwara Mother & Child Hospitals,"Palanadu Road, Near NTR Statue",522601,08647-227557,NA,NA,NA,haribabugaddam@yahoo.com,16.23777,80.045761
Andhra Pradesh,Narsaraopet,HOS-HYD-013477,Bhavanam Venkataram Memorial Gbr Super Specialty H,"Opp. Reddy Collage, Palnadu Road,",522601,08647-222771,NA,NA,NA,gbrhospital@gmail.com,16.189291,79.986191
Andhra Pradesh,Narsaraopet,HOS-HYD-011376,M.A.R. Hospitals,"Guntur Road, Narasaraopet",522601,08647-225566,NA,NA,NA,marhospitals@gmail.com,16.243026,80.03769
Andhra Pradesh,Narsaraopet,HOS-HYD-013540,Sai Nethralayam Laser And Phaco Centre,"Behind Nagasarapu Rama Rao Complex, Palnad Road",522601,08647-228066,NA,NA,NA,sainetralayamnrt@gmail.com,16.239549,80.037463
Andhra Pradesh,Nellore,HOS-HYD-1114,Modern Eye Hospital & Research Centre,"#16-11-101, Beside Venkataramapogathota",524001,0861-2324868,NA,NA,NA,moderneyehospital@yahoo.com,14.452634,79.98319
Andhra Pradesh,Nellore,HOS-HYD-1797,R.S.R.Hospital,"# 16-2/62, Pogathota",524001,0861-2321693,NA,NA,NA,rsr.hospital@gmail.com,14.45066,79.984736
Andhra Pradesh,Nellore,HOS-HYD-1216,Rich Hospitals,"#16-11/131 Kasturidevinagar, Pogathota",524001,0861-2326228,NA,NA,NA,richhospitals_nlr@yahoo.co.in,14.45093,79.98544
Andhra Pradesh,Nellore,HOS-HYD-2842,Susrutha Uro Renal Hospital,"#16-2-97, Near Raghava Cine Complex, Pogathota",524001,0861-2327724,NA,NA,NA,drmohanna@gmail.com,14.448457,79.984671
Andhra Pradesh,Nellore,HOS-HYD-3408,Aravind Nethralaya Meenakshi Hospital,"16-2-269, Swathantra Park Street, Near Saibaba Temple, Gandhi Nagar",524001,0861-2336468,NA,NA,NA,skreddy50@yahoo.com,14.411571,79.949288
Andhra Pradesh,Nellore,HOS-HYD-3992,Sailaja Nursing Home,"Raghava Line Complex Road, Pogathota",524001,0861-2325936,NA,NA,NA,drssailajanursinghome@yahoo.com,14.450764,79.984628
Andhra Pradesh,Nellore,HOS-HYD-4386,Anasuya Institute Of Medical Sciences,"16/2/142, Hotel Venkataramana Lane, Pogathota",524001,0861-22326233,NA,NA,NA,aims.nlr@gmail.com,14.450618,79.984564
Andhra Pradesh,Nellore,HOS-HYD-4271,R.K.Eye Care Centre,"15/68, Brindavanam, Besides Tikkana Telephone Bhavan",524001,0861-2301391,NA,NA,NA,drvallik@yahoo.co.in,14.444405,79.985777
Andhra Pradesh,Nellore,HOS-HYD-5527,Madurai Netralaya,"16-2-280, Near Sunday Market, Gandhinagar, Pogathota",524001,0861-2345588,NA,NA,NA,venukunthala@gmail.com,14.452384,79.983724
Andhra Pradesh,Nellore,HOS-HYD-5631,Sri Durga Hospital & Brain Centre,"15/266, Brundavanam",524001,0861-2332970,NA,NA,NA,dr_psreddy@hotmail.com,14.444655,79.98655
Andhra Pradesh,Nellore,HOS-HYD-5808,Deepthi Nursing Home,"Sbi Railway Road, Brindavanam, Psr",524001,0861-2320802,NA,NA,NA,lokam009@gmail.com,14.444156,79.985949
Andhra Pradesh,Nellore,HOS-HYD-5761,Vasan Eye Care Hospital,"15-365, Brindavanam, Nellore - 524001, Andhra pradesh",524001,0861-3989000,NA,NA,NA,nellorevasan@yahoo.com,14.431771,79.969727
Andhra Pradesh,Nellore,HOS-HYD-6445,Dr Andals Lakshmi Fertility Reserch & Laparoscopic Su,"16-2-94, Pogathota, Near Raghava Cini Complex",524001,0861-2328914,NA,NA,NA,andalbsk@yahoo.com,14.450764,79.984564
Andhra Pradesh,Nellore,HOS-HYD-6571,Lalitha Eye Hospital,"15/246, Thikkana Telephone Bhavan Exchange Street, Brindavanam",524001,0861-2331961,NA,NA,NA,eyesiva@gmail.com,14.455318,79.981721
Andhra Pradesh,Nellore,HOS-HYD-013491,Lotus Hospital,"16/2/51, Besaid 52 Cinema Hall, Pogathota",524001,0861-2304289,NA,NA,NA,lotushospitalnlr@gmail.com,14.459931,79.981378
Andhra Pradesh,Nellore,HOS-HYD-013629,Sri Vaishnavi Nursing Home,"#17/687, Achari Street",524001,0861-2303181,NA,NA,NA,srivaishnavinursing123@gmail.com,14.441681,79.985511
Andhra Pradesh,Nellore,HOS-HYD-013835,Sri Ramachandra Nursing Home,"W-16-1163, Gandhinagar, Pagathota",524001,0861-2324801,NA,NA,NA,sriramachandranursing@gmail.com,0,0
Andhra Pradesh,Nellore,HOS-HYD-014095,Venkataramana Hospital,"Near Sai Baba Temple, Gandhi Nagar",524001,0861-23128242,NA,NA,NA,venkataramanahospitalnlr@gmail.com,0,0
Andhra Pradesh,Nellore,HOS-HYD-014463,St.Joseph'S Hospital (Nellore),"Near Vimayaka Temple, Samthapet",524001,0861-2331186,NA,NA,NA,stjosephhospitalnlr@gmail.com,14.4575867,79.9807488
Andhra Pradesh,Nellore,HOS-HYD-295,Vijaya Hospital (A Unit of Vijayakrishna Hospitals Pvt L,"16II/41A, Pogathota, Opp. Hotel Mayuri, Raghava Cine Complex Road, Nellore",524001,0861-2321828,NA,NA,NA,vijaya.nlr@gmail.com,14.4533977,79.9836108
Andhra Pradesh,Nellore,HOS-HYD-015988,Padmavathi Hospital,"15/285, Opp. Babu Ice Cream Road, Brundavanam, Naidu Peta",524001,0861-2356667,NA,NA,NA,padmavathihospitalnlr@gmail.com,13.9047772,79.8945587
Andhra Pradesh,Nellore,HOS-HYD-3991,Narayana General Hosptial & Narayana Super Speciality,Chithareddy Palem,524002,0861- 2355511,NA,NA,NA,manoharp.naidu@gmail.com,14.456291,79.991271
Andhra Pradesh,Nellore,HOS-HYD-010153,Vijaya Care Hospital,"16-2-477, Srinivasa Agraharam, Vijayamahal Gate, Near Santhi Sweets",524002,0861-6450112,NA,NA,NA,vijaycarehospital_hapy@gmail.com,13.0406871,80.2741151
Andhra Pradesh,Nellore,HOS-HYD-232,Jayabharat Hospital,"16/2884, Somasekharapuram, Near V.R. College",524003,0861-2326204,NA,NA,NA,jayabharathospital.nlr@gmail.com,14.447751,79.984349
Andhra Pradesh,Nellore,HOS-HYD-3993,Ahalyadevi Nursing Home,"16-1-712, Near Nehru State, Trunk Road",524003,0861-2344545,NA,NA,NA,drgashok9@yahoo.co.in,14.44881,79.981301
Andhra Pradesh,Nellore,HOS-HYD-5431,Krishna Institue Of Medical Sciences Ltd,"24I/1520/1 Brahmandapuram, Dargamitta",524003,0861-2315835,NA,NA,NA,kimsnellore@gmail.com,14.438005,79.963976
Andhra Pradesh,Nellore,HOS-HYD-7708,Simhapuri Hospital (A Unit Of Abhayanjaneya Healthca,"Nh-5, Chinthareddy Paalem Cross Road, Nellore",524003,0816-6680100,NA,NA,NA,rachidasari@gmail.com,14.436637,79.99954
Andhra Pradesh,Nellore,HOS-HYD-013975,Kidz Rainbow Children & Baby Hospital,"Ramesh Reddy Nagar, Near Rtc Bus Stand Nellore,",524003,0861-2335888,NA,NA,NA,rainbowkidzhospitalnlr@gmail.com,14.4440734,79.975403
Andhra Pradesh,Nellore,HOS-HYD-013800,Apollo Speciality Hospitals,"16/111/1133, Pinakini Nagar, Muttukur Road, Nellore",524004,0861-3337033,NA,NA,NA,insurance.nellore@gmail.com,14.393973,79.9388571
Andhra Pradesh,Nellore,HOS-HYD-4611,C.R.Reddy Hospital,"13/264, Hospital Road, Gudur",524101,08624-252285,NA,NA,NA,crrhospital@gmail.com,14.147333,79.849724
Andhra Pradesh,Nellore,HOS-HYD-4375,Kandukuri Hospitals,"Vaishnalayam Street, Kavali",524201,08626-250854,NA,NA,NA,kandukurihospitals@gmail.com,14.915261,79.992815
Andhra Pradesh,Nellore,HOS-HYD-5906,Life Care Hospital,Dr.Obaiah Hospital Building Christian Pet 4Th Line Opp Main Busstand Kavali,524201,08626-244417,NA,NA,NA,prasad.nalini@gmail.com,14.912192,79.9904
Andhra Pradesh,Nellore,HOS-HYD-7052,Abhiram Institute Of Medical Sciences,"Opp Aps Rtc Depot, Atmakur",524322,08627-223399,NA,NA,NA,abhiramhospitals@yahoo.com,14.599845,79.619019
Andhra Pradesh,Nirmal,HOS-HYD-013399,Sujala Nursing Home,"Sujala Nagar, Mini Tank Band Road, Niramal",504106,08737-245657,NA,NA,NA,muralidhardhanista24@gmail.com,19.10063,78.337989
Andhra Pradesh,Nizamabad,HOS-HYD-015223,Nephroplus Dialysis Center,"Rudra Multi Specialty Hospital,Opp. R&B Guest House,Old NH 7 Road,Nizamaba",503111,08468-220912,NA,NA,NA,insurance@nephroplus.com,15.3507958,75.0800957
Andhra Pradesh,Ongole,HOS-HYD-2899,Padmavathi Nursing Home,"Beside Rajadhani Hotel, Santhapet, Ongole",523001,08592-281791,NA,NA,NA,padmavathihospital.ong@gmail.com,15.493758,80.052131
Andhra Pradesh,Ongole,HOS-HYD-5160,Nalluri Nursing Home,Kothapatnam Road,523001,08592-233006,NA,NA,NA,nallurinursinghome@gmail.com,15.442098,80.178712
Andhra Pradesh,Ongole,HOS-HYD-6585,Sanghamithra Hospital,"South Bypass Junction, Prakasam",523001,08592-234599,NA,NA,NA,smh.hospitals@yahoo.com,15.482798,80.047734
Andhra Pradesh,Ongole,HOS-HYD-015228,Anjani Super Speciality Hospital,"CV Reddy Complex, 60 Feet Road, Sathya Narayana Puram",523001,08592-283844,NA,NA,NA,anjanisuperspecialityhospital@gmail.com,15.4975651,80.0570646
Andhra Pradesh,Ongole,HOS-HYD-015283,Prasad Multi Speciality Hospital,"Trunk Road, Near Nellor Bus Stand, Ongole, Prakasam Dist",523001,08592-232002,NA,NA,NA,pmshongole@gmail.com,15.502005,80.0031833
Andhra Pradesh,Ongole,HOS-HYD-015170,Aravind Eye Hospital,"37-1-169/60, Kurnool Road, Sundaraiah Bhavan Road, Brundavan Nagar, Onglo",523001,0859-228953,NA,NA,NA,aravindeyehospitals@gmail.com,15.5129969,80.0404447
Andhra Pradesh,Ongole,HOS-HYD-015423,Krishna Institute Of Medical Sciences Ltd (Ongole),"#4-120/A, North Bypass Road, Nh-5, Backside Agriculture Market Yard, MukthI",523001,08592-667788,NA,NA,NA,ong.gmops@kimshospitals.com,15.4862772,80.0460717
Andhra Pradesh,Ongole,HOS-HYD-013960,Chaitanya Hospital,"Near By Pass, Anjaiah Road, Ongole",523001,08592-233009,NA,NA,NA,chaitanyahospitals1@gmail.com,15.5129969,80.0404447
Andhra Pradesh,Ongole,HOS-HYD-014553,Nephroplus Dialysis Center,"Sri Venkata Ramana Nursing Home Pvt Ltd, Kurnool Road, Venkateshwara Nag",523001,08592-282455,NA,NA,NA,insurance@nephroplus.com,15.4975651,80.0570646
Andhra Pradesh,Ongole,HOS-HYD-015675,Kakumani Hospital,"D No-37-1-5(17), Near East Restaurant, Sai Baba Temple Road, Ongloe",523001,08592-222022,NA,NA,NA,kakumanihospital@gmail.com,15.4813673,80.0590804
Andhra Pradesh,Ongole,HOS-HYD-3566,G.S.R.Hospital,Sundariah Bhavan Road,523002,08592-221145,NA,NA,NA,raghav238@yahoo.co.in,15.513111,80.040158
Andhra Pradesh,Ongole,HOS-HYD-5879,Vijaya Hospital,"60Ft Road Sn Puram Opp Rtc Bus Complex, Prakashamprakasham",523002,08592-221221,NA,NA,NA,vijayahospitals.ogl@rediffmail.com,15.51367,80.043315
Andhra Pradesh,Ongole,HOS-HYD-6611,M/S. Bharathi Nursing Home,"D. No. 37-1-169/37, Ssundariah Bhavan Road, Prakasam",523002,08592-233440,NA,NA,NA,nageswararaoent@gmail.com,15.512822,80.039986
Andhra Pradesh,Ongole,HOS-HYD-6547,"M.P.S. Memorial Hospital, Ongole","Dibbala Road, Near R.T.C. Depot , Prakasam (Dist)",523002,08592-230533,NA,NA,NA,gvs@rediffmail.com,15.511147,80.042092
Andhra Pradesh,Ongole,HOS-HYD-6680,Sundara Raja Nursing Home,"Rajapanagal Road, Prakasam Dist.",523002,08592-232665,NA,NA,NA,harirohinikumari@gmail.com,15.503676,80.04165
Andhra Pradesh,Ongole,HOS-HYD-7285,Durga Nursing Home,"20-6--138(2), Anjaiah Road",523002,08592-239069,NA,NA,NA,durganursinghome@yahoo.com,15.510601,80.037218
Andhra Pradesh,Ongole,HOS-HYD-014827,Dr. Bethune Nursing Home,"Mangamuru Road, Ongole",523002,08592-234511,NA,NA,NA,bethunenursinghome1@gmail.com,15.5066139,80.0356525
Andhra Pradesh,Ongole,HOS-HYD-014927,Modern Eye Hospital & Research Centre,"#7/13/1, Lawyerpat, Extention 5th Lane, Opp Dr. Bethune Nursing Home",523002,08292-220522,NA,NA,NA,mehongole@gmail.com,15.5054664,80.0331178
Andhra Pradesh,Ongole,HOS-HYD-015398,Sri Prasanthi Hospital & Test Tube Baby Centre,"West toBus Stand, Petrol Bunk Road",523002,08592-220872,NA,NA,NA,prasanthihospitalsongole2015@gmail.com,15.502005,80.0031833
Andhra Pradesh,Ongole,HOS-HYD-013998,Srinivasa Hospitals,"Sundavaiah Bhavan Road,Beside RTC Depot, Kurnool Road, Prakasam",523002,08592-234221,NA,NA,NA,srinivasahospitalsongole1@gmail.com,15.511269,80.0398918
Andhra Pradesh,Ongole,HOS-HYD-015494,Sevita Nursing Home,"Kurnool Road, Flyover Bridge East Service Road, Near Bustand",523002,08592-282345,NA,NA,NA,sevitanursinghomeongole@gmail.com,15.502005,80.0031833
Andhra Pradesh,Ongole,HOS-HYD-015438,Manasa Mother & Child Hospital,"Lambadi Donka, Near Aditya School, Ongole, Prakasam",523002,08592-239578,NA,NA,NA,manasahospitalongole@gmail.com,15.502005,80.0031833
Andhra Pradesh,Ongole,HOS-HYD-010162,Yamini Eye Care,"East To R.T.C Bus Stand, Ongole",523002,08592-282848,NA,NA,NA,yaminieyecare@yahoo.com,15.5141463,80.0438555
Andhra Pradesh,Prakasam,HOS-HYD-5573,Kommalapati Veeraiah Nursing Home,"58-9-16(2), Kamasastry Road, Ongole",523001,08592-220840,NA,NA,NA,ong.varunvasu@gmail.com,15.521837,80.048344
Andhra Pradesh,Prakasam,HOS-HYD-4144,Ravi Nursing Home,"#22/386, Government Hospital Road, Chirala",523155,08139-287540,NA,NA,NA,ravi.grandbay@hotmail.com,15.887376,80.367325
Andhra Pradesh,Proddatur,HOS-HYD-4235,Latha Poly Nursing Home,"Holmespet, 3-1461, Proddatur Near Gandhi Road",516360,08564-245677,NA,NA,NA,jayaortho@gmail.com,14.753386,78.551342
Andhra Pradesh,Proddatur,HOS-HYD-6042,Vijaya Eye Hospital,4 624 Gandhi Road,516360,08632-235344,NA,NA,NA,vijayaeyehospital@gmail.com,14.753967,78.548291
Andhra Pradesh,Proddatur,HOS-HYD-014951,Bhavya Nursing Home,"4-203, Near Gandhi Statue, Gandhi Road, Proddatur, Kadapa",516360,08564-245533,NA,NA,NA,bhavyanursinghome@gmail.com,47.9045919,106.9265084
Andhra Pradesh,Proddatur,HOS-HYD-015684,Shree Madan Multispeciality Hospital,"10-238, Gandhi Nagar",516360,08564-243455,NA,NA,NA,shreemadanhospitalproddatur@gmail.com,14.7491864,78.5531577
Andhra Pradesh,Proddatur,HOS-HYD-016048,SVR Hospital,"D. No. 8/606-7, Godown Street, Proddatur, Kadapa",516360,08564-243377,NA,NA,NA,svrhospital@gmail.com,14.7544165,78.5452458
Andhra Pradesh,Rajahmundry,HOS-HYD-199,Aravindam Orthopaedic And Physiotherapy Centre,"D.No-6-18-3, Kokkondavari Street, T Nagar.Rajahundry",533101,0883-2428488,NA,NA,NA,garavindan@yahoo.co.in,17.109293,81.731964
Andhra Pradesh,Rajahmundry,HOS-HYD-234,Life Emergency,"36-26-10/1, Near Kotipallibridgecenter",533101,0883-2421357,NA,NA,NA,markandeyagupte@gmail.com,16.994248,81.776129
Andhra Pradesh,Rajahmundry,HOS-HYD-3260,S.A.I. Hospitals,"Near Gokavaram Bus Stand, Aryapuram Middle , Street Kodlampeta, Behind Nag",533101,0883-2470033,NA,NA,NA,saihospitalrjy@gmail.com,17.013044,81.771571
Andhra Pradesh,Rajahmundry,HOS-HYD-2012,Apex Hospital,"75-6-23, Prakash Nagar, East Godavari",533103,0883-2439191,NA,NA,NA,apexhospitals.rjy@gmail.com,17.110523,81.818999
Andhra Pradesh,Rajahmundry,HOS-HYD-2218,Abhaya Emergency Centre Sri Hospitals,"79-1-4/1, J.N. Road",533103,0883-2461640,NA,NA,NA,abhayaemergency@gmail.com,17.20377,81.758606
Andhra Pradesh,Rajahmundry,HOS-HYD-523,Harsha Hospitals,"75-1-7, Prakash Nagar, 2Nd Street, East Godavari",533103,0883-2469403,NA,NA,NA,kssp_harsha@rediffmail.com,17.008776,81.788958
Andhra Pradesh,Rajahmundry,HOS-HYD-897,Rajamundry Orthopeadic Hospital,75-1-18 Prakash Nagar,533103,0883-2468110,NA,NA,NA,orthodoc.roh@gmail.com,17.00894,81.788918
Andhra Pradesh,Rajahmundry,HOS-HYD-1583,Raju Neuro & Multispeciality Hospital,"Gandhipuram-Ii, Rajamundry, East Godavari",533103,0883-2445199,NA,NA,NA,rajuneuro@gmail.com,17.114543,81.753937
Andhra Pradesh,Rajahmundry,HOS-HYD-204,Ratna Orthopaedic Centre,Danavai Peta,533103,0833-2445195,NA,NA,NA,NA,17.135541,81.814362
Andhra Pradesh,Rajahmundry,HOS-HYD-820,Sri Mani Orthopaedic Hospital,"D.No:76/1-8/1, Gandhipuram-2",533103,0883-2468787,NA,NA,NA,NA,17.004488,81.788983
Andhra Pradesh,Rajahmundry,HOS-HYD-3920,Coastal Cardiac And Maternity Centre,"#46-22-18, Near Danavaipeta Park, East Godavari",533103,0883-2441133,NA,NA,NA,bccmc2005@gmail.com,17.319176,81.703674
Andhra Pradesh,Rajahmundry,HOS-HYD-4005,Vijaya Hospitals,"78-9-11/9, Gandhipuram-3, Back Side Of Rtc Complex",533103,0883-2460111,NA,NA,NA,vijayahospitals@rediffmail.com,17.005329,81.788639
Andhra Pradesh,Rajahmundry,HOS-HYD-4349,Sri Ramadas Hospitals,"78-8-7, Gandhipuram",533103,0883-2472217,NA,NA,NA,sriramadashospitals@gmail.com,17.005698,81.788639
Andhra Pradesh,Rajahmundry,HOS-HYD-5532,Krishna Institute Of Medical Science (Bollineni),"#77-7-77/1,Seelam Nookaraju Complex Road,Katari Gardens, Rajamundry",533103,0883-2477779,NA,NA,NA,info@bollinenihospitals.com,17.027899,81.791634
Andhra Pradesh,Rajahmundry,HOS-HYD-5533,Swetha Hospital,"46-13-11, Danvaipeta,East Godavari",533103,0883-2465533,NA,NA,NA,drmsrinivas3@gmail.com,17.009925,81.782471
Andhra Pradesh,Rajahmundry,HOS-HYD-5809,Pragati Superspeciality Hospital,"75-6-18, Prakash Nagar, Main Road, Rajamundry",533103,0883-2440397,NA,NA,NA,pragatihospital1998@gmail.com,17.00892,81.788704
Andhra Pradesh,Rajahmundry,HOS-HYD-6045,Neela Jear Hospital,"44-22-5,Rajahmundry, Est Godavari Dist.",533103,0883-2469478,NA,NA,NA,neelajearhospital@gmail.com,17.156537,81.748444
Andhra Pradesh,Rajahmundry,HOS-HYD-487,Dr.A.V.Ramana Rao Memorial Eye Clinic,Opp.Gokavaram Bus Stand,533104,0883-2444852,NA,NA,NA,murthyasr4@gmail.com,17.010623,81.772331
Andhra Pradesh,Rajahmundry,HOS-HYD-5071,Royal Hospital,"20-23-4/A, Royal Hospital Street Behind Nagadevi Theatre, Aryapuram East Go",533104,0883-2446992,NA,NA,NA,royal.reh@rediffmail.com,17.012182,81.772865
Andhra Pradesh,Rajahmundry,HOS-HYD-5658,Siddhartha Orthopaedic Hospital & Polyclinic,"#29-14-96, Lakshmivarapupeta",533104,0883-2473603,NA,NA,NA,buddhudu2000@yahoo.com,17.00894,81.772772
Andhra Pradesh,Rajahmundry,HOS-HYD-014519,Universal Hospitals,"29-14-29, Lakshmivrpupeta, Devi Chowk",533104,0883-2555533,NA,NA,NA,universalhospitalsrjy@gmail.com,17.0078902,81.7718276
Andhra Pradesh,Rajahmundry,HOS-HYD-010218,Nephroplus Dialysis Center,"4th Floor, Sai Hospital, Near Gokavaram Bus stand ,",533104,0883-2975007,NA,NA,NA,insurance@nephroplus.com,17.0335813,81.7404134
Andhra Pradesh,Rajahmundry,HOS-HYD-332,Swatanthra Hospital,Near Kambaka Park,533105,0883-4654345,NA,NA,NA,swatantrahospitals@gmail.com,17.017722,81.777394
Andhra Pradesh,Rajahmundry,HOS-HYD-3733,Goutami Eye Institute,#1 Rv Nagar 23-11-32/1 Opp Market Yard East Godavari,533105,0883-2443441,NA,NA,NA,tpageirjy@gmail.com,17.021744,81.784412
Andhra Pradesh,Rajahmundry,HOS-HYD-7480,Vasan Eye Care Hospital (A Unit Of Vasan Health Care P,"Gandhi Puram-2, Rajahmundry -533105, Andhra Pradesh",533105,0883-3989000,NA,NA,NA,tpa.rajahmundry@gmail.com,17.005696,81.788229
Andhra Pradesh,Rajahmundry,HOS-VIZ-1801,G.S.L. General Hospital,"#Nh-5, Lakshmipuram, Rajanagaram, Mandal",533294,0883-2484999,NA,NA,NA,gsl.hrd@gmail.com,17.214264,81.824524
Andhra Pradesh,Ramachandrapuram,HOS-HYD-3585,Narayana Reddy  Superspeciality Eye Hospital,"No.1-102, Canal Road, Anaparthi",533342,08857-227422,NA,NA,NA,narayanareddyeyehospital@gmail.com,16.941543,81.95418
Andhra Pradesh,Razam,HOS-HYD-6322,GMR Varalakshmi Care Hospital,"Gmr Nagar Rajam, Peddaveedhi",532127,08941-2531841,NA,NA,NA,chrao@gmrcarehospitals.in,18.461272,83.658365
Andhra Pradesh,Sattenapalle,HOS-HYD-013578,Nagarjuna Eye Hospital,"State Bank Of India Lane, Sattena Palli, Guntur District",522403,0861-232030,NA,NA,NA,nagarjunaeyehospital@gmail.com,15.825335,80.369596
Andhra Pradesh,Srikakulam,HOS-HYD-4037,Sri Sathyasai Day & Night Hospital,"Opp Forest Office, Day & Night Junction",532001,08942-222222,NA,NA,NA,drkpandurangarosklm@gmail.com,18.158901,83.42997
Andhra Pradesh,Srikakulam,HOS-HYD-4639,Mithra Maternity Nursing Home,Near K.R. Stadium,532001,08942-224577,NA,NA,NA,annaiji66@gmail.com,18.306292,83.892237
Andhra Pradesh,Srikakulam,HOS-HYD-4559,Sindhura Nursing Home,"Near Newbridge, Day & Night Junction",532001,08942-228455,NA,NA,NA,sindhu.hospital@yahoo.com,18.315092,83.89155
Andhra Pradesh,Srikakulam,HOS-HYD-6495,Suraksha Kidney & Maternity Centre,"Plot No 41516, Industrial Estate, Opp Balaga Bharat Petrol Bunk",532001,08942-229933,NA,NA,NA,dhanumjayudu.k@gmail.com,18.3144,83.891123
Andhra Pradesh,Srikakulam,HOS-HYD-6415,Kims Sai Seshadri Hospital,"P.N. Colony, Datta Temple",532001,08942-271116,NA,NA,NA,kimsssh.tpa2011@gmail.com,18.302157,83.880397
Andhra Pradesh,Srikakulam,HOS-HYD-6438,Kamala Hospital (Srikakulam),Illisipuram Junction,532001,08942-326263,NA,NA,NA,kamala.hospital@yahoo.in,18.285736,83.899516
Andhra Pradesh,Srikakulam,HOS-HYD-4191,Radhakrishna Nursing Home,"5-19, Pondur Road, Rajam",532127,08941-251485,NA,NA,NA,rajad_surgeon@yahoo.com,18.451603,83.661378
Andhra Pradesh,Tanuku,HOS-HYD-356,Lakshmi Arundhati Nursing Home,West Godavari Dt,534211,08819-224679,NA,NA,NA,lakshmiarundhathihospital@gmail.com,16.753756,81.695683
Andhra Pradesh,Tanuku,HOS-HYD-1732,Sri Chaitanya Orthopaedic Hospital,"# 22-7-1, Vinnakota Vari Street. West Godavari",534211,08819-229585,NA,NA,NA,satti222922@yahoo.co.in,16.753263,81.693967
Andhra Pradesh,Tanuku,HOS-HYD-3391,Sudha Hospital,"Opp Co-Operative Society, 21-1-4, West Godavari Dist",534211,08819-224230,NA,NA,NA,ravisurg@gmail.com,16.758852,81.681412
Andhra Pradesh,Tanuku,HOS-HYD-3365,Sri Vijaya Nursing Home,"Babugari Street, Opp-Town Hall Complex",534211,08819-222745,NA,NA,NA,svnhpvr@gmail.com,16.753016,81.688064
Andhra Pradesh,Tanuku,HOS-HYD-4139,Sri Surya Nursing Home,"32-3-4, Peer Ahmed Street",534211,08819-222044,NA,NA,NA,srisuryahospital111@gmail.com,16.755359,81.68094
Andhra Pradesh,Tanuku,HOS-HYD-013509,Sri Aditya Hospital-Tanaku,"Besaid Hdfc Bank, Sajjapuram",534211,08819-228696,NA,NA,NA,sriadityahospital.tanuku@gmail.com,16.757183,81.679963
Andhra Pradesh,Tanuku,HOS-HYD-014134,Geeta Hospitals,"D.NO:22-7-21, Vinnakotavari Street",534211,08819-224246,NA,NA,NA,geetahospitals@gmail.com,16.7571507,81.6752641
Andhra Pradesh,Tenali,HOS-HYD-5672,Sai Madhavi Nursing Home,"#7-5-11, Prakasam Road, Near Lakshmi Delux, Guntur",522001,08644-231416,NA,NA,NA,drsatishmadhavi@yahoo.com,16.243683,80.647155
Andhra Pradesh,Tenali,HOS-HYD-3027,Health Hospitals,"#7-5-88/A, Prakasam Road Near Lakshmi Theatre",522201,08644-226060,NA,NA,NA,healthinsurance333@gmail.com,16.243848,80.646466
Andhra Pradesh,Tenali,HOS-HYD-3029,Alapati Nursing Home,"Gopalreddy Street, Ganganammapet",522201,08644-225254,NA,NA,NA,NA,16.241396,80.646383
Andhra Pradesh,Tenali,HOS-HYD-3009,Kotnis Prajavaidya Sala,"Letures'S Colony, Ganganamma Pet",522201,08644-228080,NA,NA,NA,bsrkp12156@gmail.com,16.233259,80.635565
Andhra Pradesh,Tenali,HOS-HYD-6569,Kims Hospital-Tenali,"7-5-9/2, Prakasam Road , Guntur",522201,08644-229415,NA,NA,NA,tenali.kims@gmail.com,16.243704,80.647306
Andhra Pradesh,Tenali,HOS-HYD-6579,J.V.M. Hospital-Tenali,Nehru Road,522201,08644-222213,NA,NA,NA,jvm.koti@gmail.com,16.238677,80.648958
Andhra Pradesh,Tenali,HOS-HYD-6682,Srinivasa Hospital,"Door: 16-41-2, Salipet, Guntur",522201,08644-232525,NA,NA,NA,ksrksrkrl@hotmail.com,16.256388,80.644574
Andhra Pradesh,Tenali,HOS-HYD-6527,Vadlamudi Hospital-Tenali,"V.S.R. College Road, Near R.T.C. Bus Stand",522201,08644-226045,NA,NA,NA,vadlamudikiran@yahoo.co.in,16.25283,80.643412
Andhra Pradesh,Tenali,HOS-HYD-013710,JK Hospital,"#2, Town Police Station Road, Ganganammapet, Tenali, Guntur",522201,08644-221225,NA,NA,NA,jkhospital1@gmail.com,16.2397138,80.6332241
Andhra Pradesh,Tenali,HOS-HYD-014603,V Cardiac & Multispeciality Hospital,"22-15-12, T.B Road, Near Veenus Theater, Kotapeta, Tenali",522201,08644-226017,NA,NA,NA,vcmhtenali@gmail.com,16.2511788,80.6493396
Andhra Pradesh,Tirupati,HOS-HYD-892,Russh Super Speciality Hospitals,"D. No. 10-14-576/6, Reddy & Reddy Colony, 1st street, Behind Municipal Petrol",517501,0877-2220487,NA,NA,NA,russhhospitals@gmail.com,13.775609,78.789307
Andhra Pradesh,Tirupati,HOS-HYD-3737,DBR & SK Super Speciality Hospital,"20-7-37, Near Tmc, Maruthi Nagar, Korlagunta, Tirupati",517501,0877-2222443,NA,NA,NA,dbrskhospitalstpt@gmail.com,13.553303,78.502783
Andhra Pradesh,Tirupati,HOS-HYD-5835,Gayathri Hospitals (A Division Of Jd Hospitals Pvt Ltd),"# 484 & 485 V.V.Mahal Road Beside Bank Of Baroda,Chitoor",517501,0877-2228082,NA,NA,NA,gayathrihospitals@gmail.com,13.637562,79.420485
Andhra Pradesh,Tirupati,HOS-HYD-6501,Ravi Neuro & Emergency Hospital,"# 576, Reddy & Reddy Colony, Chittoor (D)",517501,0877-2222369,NA,NA,NA,rnehospital@yahoo.com,13.902076,79.462463
Andhra Pradesh,Tirupati,HOS-HYD-6624,Lotus Emergency Hospital,"18-1-301/302, Bhavani nagar circle,Near TTD A.D Building, K T Road",517501,0877-2252962,NA,NA,NA,lotusemergencyhospital@gmail.com,13.642898,79.41791
Andhra Pradesh,Tirupati,HOS-HYD-6839,Elite Multi Speciality Hospital Pvt Ltd,"10-14-576/6, R&R Colony Opp. Municipal",517501,0877-2251000,NA,NA,NA,elitehospitals@gmail.com,13.62529,79.436175
Andhra Pradesh,Tirupati,HOS-HYD-6792,Om Hospital,"18-1-667 (Old), 544 (New), Bhavani Nagar, Near Devendra Theatre, Chittor",517501,0877-2220582,NA,NA,NA,omhospitalcorporatedesk@gmail.com,13.638189,79.423358
Andhra Pradesh,Tirupati,HOS-HYD-013489,Sri Sai Sudha Hospitals,"#521, Reddy & Reddy Colony,",517501,0877-2227020,NA,NA,NA,saisudhahospitalstpt@gmail.com,13.617616,79.409997
Andhra Pradesh,Tirupati,HOS-HYD-012654,Swetha Childrens Hospital & Multi Speciality Hospital,"# 18-1-664, Bhavani Nagar, 2Nd Street",517501,0877-2222228,NA,NA,NA,swethahosptaladmin@gmail.com,13.566194,79.402345
Andhra Pradesh,Tirupati,HOS-HYD-013541,Fortuna Women & Ortho Care Hospital,"Plot No.7, Opp. Gautham Talent School, Mm Complex,Air By-Pass Road, New Ba",517501,0877-2265999,NA,NA,NA,fortunahospitaltpt@gmail.com,13.621221,79.412764
Andhra Pradesh,Tirupati,HOS-HYD-013707,Suraksha Hospital,"581, Reddy & Reddy Colony, Tirupati, Chittoor",517501,0877-6640501,NA,NA,NA,surakshahospital1@gmail.com,0,0
Andhra Pradesh,Tirupati,HOS-HYD-011243,Mother Hospital,"6-2-145, Opp. Bhavani Nagar, Anjaneya Tample, Bhavani Nagar",517501,9701342691,NA,NA,NA,motherhospitaltpt@gmail.com,13.6388217,79.4204627
Andhra Pradesh,Tirupati,HOS-HYD-014554,Nephroplus Dialysis Center,"DBR & SK Super Speciality Hospital, 4th Floor, Door No: 20-7-37, TMC Music Ce",517501,0877-2233012,NA,NA,NA,insurance@nephroplus.com,0,0
Andhra Pradesh,Tirupati,HOS-HYD-014555,Nephroplus Dialysis Center,"Manasa Kidney Foundation, K. T. Road,",517501,0877-2235554,NA,NA,NA,insurance@nephroplus.com,13.652055,79.418358
Andhra Pradesh,Tirupati,HOS-HYD-015672,JK Hospital,"22-4-62/3, Road No. 4, Mangalam Road, Tirumala Reddy Nagar",517501,0877-297476,NA,NA,NA,jkhospitaltpt@gmail.com,13.6301445,79.4124091
Andhra Pradesh,Tirupati,HOS-HYD-010350,Venkataramana Heart And Maternity Hospital,"10-13-533, Reddy And Reddy Colony, Tirupathi",517501,0877-2258183,NA,NA,NA,venkataramanahmh@gmail.com,13.652055,79.418358
Andhra Pradesh,Tirupati,HOS-HYD-015674,Helios Hospital,"18-2-148, Devendra Theatre, Ashok Nagar, Tirupati",517501,0877-2223636,NA,NA,NA,heliostirupati@gmail.com,13.6301445,79.4124091
Andhra Pradesh,Tirupati,HOS-HYD-015264,Sri Sai Multi Speciality Hospital,"5-1-75/E, Sarojini Devi Road, Opp. Municipal school",517501,0877-2286109,NA,NA,NA,kirankumar_gp@yahoo.com,13.6383424,79.4141424
Andhra Pradesh,Tirupati,HOS-HYD-014260,Sri Padmavathi Multispeciality Hospital,"6/1/47, R.S. Gardens, Old Maternity Hospital Road",517501,0877-3255449,NA,NA,NA,spmshospital@gmail.com,12.9869317,77.6071497
Andhra Pradesh,Tirupati,HOS-HYD-014476,Careplus Hospitals Pvt Ltd,"2-164/14, New Balaji Colony, 80 Feet Road",517502,"8,772,234,412",NA,NA,NA,careplushospitals1@gmail.com,13.619093,79.4112733
Andhra Pradesh,Tirupati,HOS-HYD-010297,Sri Chakra Hospitals,"10-13-496, Reddy And Reddy Colony",517502,0877-6647024,NA,NA,NA,srichakramultispecialty@gmail.com,13.63601,79.421126
Andhra Pradesh,Tirupati,HOS-HYD-013490,Navya Nethralaya,"D.No.2-2-349, K.V Layout,",517507,0877-2224755,NA,NA,NA,navyanethralayatpt@gmail.com,13.633475,79.409706
Andhra Pradesh,Tirupati,HOS-HYD-014267,Sagar Hospital,"151, Sairam Street, T Nagar",517507,0877-2287888,NA,NA,NA,sagarhospital9@gmail.com,12.9453844,77.6287765
Andhra Pradesh,Tirupati,HOS-HYD-015725,Gopi Madhavi Hospital,"#10-3-206/M2/1,  Reddy and Reddy Colony, Tirupathi",517507,0877-2255660,NA,NA,NA,gmhospital55@gmail.com,13.652055,79.418358
Andhra Pradesh,Tirupati,HOS-HYD-6274,Vennela Super Speciality Eye & Dental Hospital,502/B. 1Stfl. Opp;Sbi Kt Road.,522517,0877-2228266,NA,NA,NA,drprasannakumarreddy@gmail.com,13.596373,79.410381
Andhra Pradesh,Vijayawada,HOS-HYD-824,Vijetha Health Care & Research Centre (P) Ltd.,"29-37-30, Eluru Road, Suryaraopet",520001,0866-2444101,NA,NA,NA,vijethahospitals@msn.com,17.346051,78.568331
Andhra Pradesh,Vijayawada,HOS-HYD-4669,Amma Hospital,"9-64-2, Syed Gulab Street, Kothapet",520001,0866-2563905,NA,NA,NA,ammahospital1@gmail.com,16.523328,80.614401
Andhra Pradesh,Vijayawada,HOS-HYD-64,Charithasri Hospitals Ltd,"29-6-10, Peddibhotla Towers, Nakkala Road, Suryarao Pet",520002,0866-2432350,NA,NA,NA,charithasrihospital@gmail.com,16.512836,80.631746
Andhra Pradesh,Vijayawada,HOS-HYD-288,Global Multipseciality Hospital,"M.G.Road, Opp. Old Bus Stand",520002,0866-2571613,NA,NA,NA,globalhospital2010@gmail.com,16.507158,80.647839
Andhra Pradesh,Vijayawada,HOS-HYD-323,Meenakshi Eye Hospital,"Mohanbagh Apartments, Dornakal Road",520002,0866-2433388,NA,NA,NA,ravishankar@gmail.com,16.506603,80.648078
Andhra Pradesh,Vijayawada,HOS-HYD-2062,M.J Naidu Superspeciality Hospital,"33-18-15A, Suryaraopet",520002,0866-2435555,NA,NA,NA,mjnaidu1@gmail.com,16.512631,80.637564
Andhra Pradesh,Vijayawada,HOS-HYD-300,Andhra Hospitals (Vijayawada) Pvt. Ltd.,"C.V.R Complex, Prakasam road",520002,0866-2574757,NA,NA,NA,andhrahospitalsinsurance@gmail.com,16.51152,80.629729
Andhra Pradesh,Vijayawada,HOS-HYD-1391,S.K. Super Speciality Laser Eye Hospital,"29-13-87, Kaleswara Rao Road, Surya Rao Pet.Surya Rao Pet",520002,0866-2433791,NA,NA,NA,drbsubbarao55@gmail.com,16.506706,80.648035
Andhra Pradesh,Vijayawada,HOS-HYD-3199,Help Hospital Pvt Limited,"D.No.27-29-23, Behind Viforia Musium Gowripet , Vijayawad",520002,0866-5515552,NA,NA,NA,info@helphospitals.com,16.515099,80.64715
Andhra Pradesh,Vijayawada,HOS-HYD-3266,Sridevi Eye Hospital,"Dror No 29-6-13A, Nakkal Road Surya Rao Pet.29-6-13A, Nakkal Road, Surya Ra",520002,0866-2442777,NA,NA,NA,sridevieyehospital@gmail.com,16.515017,80.638955
Andhra Pradesh,Vijayawada,HOS-HYD-3054,Vijayawada Multispeciality Hospital ( A Unit Of Durgab,"h29-19-16, Chiluku Durgaiah Street,Nakkal Road,1St Cross,Vijaya Talkies Centre",520002,0866-6660133,NA,NA,NA,vijayawadamultispecialityhosp@gmail.com,16.513104,80.635611
Andhra Pradesh,Vijayawada,HOS-HYD-3577,Aswinee Nursing Home,"D.No.29-26-56, Suryaraopet, Jadagamvari Street",520002,0866-2435522,NA,NA,NA,arntagore8@yahoo.co.in,16.516251,80.63711
Andhra Pradesh,Vijayawada,HOS-HYD-3595,Sandhya Hi-Tech Vision Care Centre,"B.No.29-13-90, Kaleswara Rao Road, Surya Rao Pet, Krishna",520002,0866-2438956,NA,NA,NA,sandhya.eyehospitals@gmail.com,16.506665,80.648142
Andhra Pradesh,Vijayawada,HOS-HYD-3615,Dr. NTR Gastro Care Pvt Ltd,"No.29-14-51, Prakassam Road, Pushpa Hotel Cafe, Krishna",520002,0866-2485522,NA,NA,NA,harinihospitals@yahoo.com,16.507158,80.648139
Andhra Pradesh,Vijayawada,HOS-HYD-3675,City Cancer Centre,"No.33-25-33, Ch.Venkata Krishnaiah Street, Suryaraopet, Krishna, Vijayawada",520002,0866-2436661,NA,NA,NA,mgopichand@yahoo.com,17.417477,78.486122
Andhra Pradesh,Vijayawada,HOS-HYD-4068,Purna Heart Institute,"#29-28/1-17, Kovelamudivari Street, Suryarao Pet",520002,0866-2441797,NA,NA,NA,purnaheart@gmail.com,16.513454,80.637754
Andhra Pradesh,Vijayawada,HOS-HYD-3893,Vijay Orthopaedic & Accident Care,"# 29-5-7, Cherukupalli Vari Street Near Sapthagiri College, Governorpet",520002,0866-6577100,NA,NA,NA,vijayorthovza@gmail.com,16.512836,80.630201
Andhra Pradesh,Vijayawada,HOS-HYD-4105,Singari Ent Hospital & Research Centre,"#29-9-54, Govindarajulu Naidu, Street, Suryaraopet",520002,0866-2433234,NA,NA,NA,drarunaprabhakar@yahoo.co.in,16.506644,80.648057
Andhra Pradesh,Vijayawada,HOS-HYD-3983,Arun Kidney Centre,"#29-23-9, Tadepallivani Street, Suryaraopet",520002,0866-2435664,NA,NA,NA,arunkidneycenter123@gmail.com,16.506603,80.647906
Andhra Pradesh,Vijayawada,HOS-VIZ-3184,Giridhar Ent Hospital,"29-8-39, Ch Durgaiah Street",520002,0866-2435194,NA,NA,NA,giridharenthospital@gmail.com,16.506706,80.648035
Andhra Pradesh,Vijayawada,HOS-HYD-3994,Sai Swetha Mother & Child Hospital,"29-24-8, Boyapativari Street, Suryaraopet, Beside Gangaraju Kalyana Mandapp",520002,0866-2436239,NA,NA,NA,sunkara_rr@yahoo.co.in,16.506541,80.647928
Andhra Pradesh,Vijayawada,HOS-HYD-4226,Heart Care Centre,"Door # 29-12-21, Venkata Rathnam Street, Dornakal Road",520002,0866-2438588,NA,NA,NA,rao.pallem@gmail.com,16.506685,80.648121
Andhra Pradesh,Vijayawada,HOS-HYD-4467,Sumanth Hospitals,"33-1-5, Balaji Street, Seetharampuram",520002,0866-2433999,NA,NA,NA,sumanthortho@gmail.com,16.506027,80.641533
Andhra Pradesh,Vijayawada,HOS-HYD-5399,Vignesh Hospitals,"29-14-52/A, Pushpa Hotel Centre.Prakasam Road, Surya Rao Pet",520002,0866-6631234,NA,NA,NA,vigneshsuperspecilities@gmail.com,16.512548,80.626761
Andhra Pradesh,Vijayawada,HOS-HYD-5607,Latha Super Speciality Hospital (A Unit Of Klmm Hospit,"29-14-58, Latha Prakasham Road, Suryaraopet",520002,0866-2498483,NA,NA,NA,info@lathasuperspecialityhospital.com,16.512487,80.637542
Andhra Pradesh,Vijayawada,HOS-HYD-5663,Life Line Trimurthy Hospital,"#29-26-55, Jadagam Vari Street",520002,0866-2442070,NA,NA,NA,dr_murty@yahoo.com,16.516128,80.637153
Andhra Pradesh,Vijayawada,HOS-HYD-5846,Anu Hospitals,"Kovelarnudivari St, Suryaraopet, Krishna Dist.",520002,0866-2438881,NA,NA,NA,srianuhospitals2012@gmail.com,16.506685,80.648121
Andhra Pradesh,Vijayawada,HOS-HYD-6508,Metro Super Speciality Hospital,"#29-14-32, Nakkal Road Cross Junction Prakasam Road, Suryaraopet, Krishna",520002,0866-2442324,NA,NA,NA,metrossh@gmail.com,16.510787,80.632326
Andhra Pradesh,Vijayawada,HOS-HYD-5916,Kamala Orthopeadic Nursing Home,"29-19-51, Domakal Road Near Veedhi Rajaiah Meda, Kothavanthena Bus Stop",520002,0866-2430665,NA,NA,NA,hospiplushyd@gmail.com,16.513577,80.635737
Andhra Pradesh,Vijayawada,HOS-HYD-6681,Peoples Clinic,"Palaparthivari Street, Governorpet",520002,0866-2577089,NA,NA,NA,makinenikiran@gmail.com,16.506184,80.648004
Andhra Pradesh,Vijayawada,HOS-HYD-6768,Vijaya Super Speciality Hospital,"#29-26-92A, Near Swathi Press, Boyapativqri St., Suryaraopet",520002,0866-2435300,NA,NA,NA,vijayasuperh@gmail.com,16.513597,80.637309
Andhra Pradesh,Vijayawada,HOS-HYD-6048,Vasan Eye Care Hospital Vijayawada,"29-14-44,Prakasam Road,Suryaraopet, Vijayawada - 520002, Andhra Pradesh",520002,0866-3989000,NA,NA,NA,vijayawadavasan@yahoo.com,16.511108,80.626792
Andhra Pradesh,Vijayawada,HOS-HYD-013401,Sunrise Hospitals (Unit Of Ns Health Care Services Pvt.,"# 33-25-35, Bellapu Sobhanadri Road,Vijayawada",520002,0866-2434646,NA,NA,NA,sunrisehospitalsvja@gmail.com,16.512785,80.639348
Andhra Pradesh,Vijayawada,HOS-HYD-013449,Sateesh Gastro & Liver Centre,"29-14-37, 5 Route, Prakasam Road,Suryaraoprt",520002,0866-2442348,NA,NA,NA,sateeshglc@gmail.com,16.510557,80.633423
Andhra Pradesh,Vijayawada,HOS-HYD-013451,Mother & Child Hospital & Family Hospital,"D.No. 29-19-69, Dornakal Road, Suryaraopet",520002,0866-6618008,NA,NA,NA,familyhospital@gmail.com,16.512188,80.635555
Andhra Pradesh,Vijayawada,HOS-HYD-014166,Sankara Eye Hospital (A Unit Of Kanchi Kama Kothi Me,"Prakasham Road, Near Pushpa Hotel",520002,0866-2434629,NA,NA,NA,bde.vja@sankaraeye.com,16.512788,80.6289793
Andhra Pradesh,Vijayawada,HOS-HYD-010359,Krishna Gastro & Liver Centre And Safe Hospital,"Do No-29-14-52, Prakasam Road, Near Pushpa Hotel, Krishna",520002,0866-2437799,NA,NA,NA,safehospitals97@gmail.com,16.5093123,80.6371972
Andhra Pradesh,Vijayawada,HOS-HYD-014786,Sathish Urology & Andrology Centre,"29-9-60, Govindarajula Naidu Street, Suryaraopet",520002,0866-2435484,NA,NA,NA,satishurology2015@gmail.com,16.5134478,80.6327699
Andhra Pradesh,Vijayawada,HOS-HYD-015096,Gaayathri City Eye Hospital,"33-1-6, bellapu sobhandari street Near Seetaramapuram Signals",520002,0866-6686668,NA,NA,NA,gaayathrieyehospital@gmail.com,16.5098886,80.6354665
Andhra Pradesh,Vijayawada,HOS-HYD-4684,Nori Mother & Child Hospital,"24-2-16A, N.R.P Road, Gandhinagar",520003,0866-2436815,NA,NA,NA,norihospitalvja@gmail.com,16.519296,80.626589
Andhra Pradesh,Vijayawada,HOS-HYD-5699,HCG Curie City Cancer Centre (A Unit Of Healthcare Glo,"Padavalarevu, Gunadala",520004,0866-2435900,NA,NA,NA,admin.vijay@hcgoncology.com,16.523575,80.666636
Andhra Pradesh,Vijayawada,HOS-HYD-66,Nagarjuna Hospitals Ltd,"Door No 8-102, Kanuru",520007,0866-2554701,NA,NA,NA,admin@nagarjunahospitals.com,16.489094,80.684525
Andhra Pradesh,Vijayawada,HOS-HYD-6756,Time Hospitals Private Limited,"#11-150, Ashok Nagar Bus Stop, M.G.Road",520007,0866-2555526,NA,NA,NA,timehospitals@gmail.com,16.487728,80.677504
Andhra Pradesh,Vijayawada,HOS-HYD-015529,Liberty Hospital,"#74-1-2, King Square Complex, Opp Auto Nagar Bus Terminals, Patamata, MG R",520007,0866-2554888,NA,NA,NA,libertyhospitals.1@gmail.com,16.4852649,80.6715317
Andhra Pradesh,Vijayawada,HOS-HYD-65,Dr. Ramesh Cardiac And Multispeciality Hospital (P) Lt,"Near I.T.I College, Ring Road",520008,0866-2484800,NA,NA,NA,info@rameshhospitals.com,16.507158,80.659683
Andhra Pradesh,Vijayawada,HOS-HYD-2892,Lakshmi Eye & Maternity & Laparoscopy Hospital,"Above Lakshmi Vilas Bank, Benz Circle, Gayatri Nagar, Opp. St. Pauls Church",520008,0866-2477198,NA,NA,NA,lakshmi_eye@yahoo.com,16.501603,80.655772
Andhra Pradesh,Vijayawada,HOS-HYD-6121,Vennela Mother & Child Hospital,"40-9-100, Sainagar,Near Benz Circle",520008,0866-2477067,NA,NA,NA,chmraovennela@gmail.com,16.500534,80.655049
Andhra Pradesh,Vijayawada,HOS-HYD-6598,Sentini Hospitals Pvt. Ltd,"54-15-5 B&C, Besides Vinayaka Theatre",520008,0866-6465111,NA,NA,NA,info@sentinihospitals.com,16.511211,80.665845
Andhra Pradesh,Vijayawada,HOS-HYD-7432,Aayush NRI LEPL Healthcare Pvt Ltd,"D.No.48-13-3 & 3A, Sri Ramachandra Nagar, Krishna, Opp. Ntr Health Universit",520008,0866-2541414,NA,NA,NA,aayushhospitals4u@gmail.com,16.517516,80.675153
Andhra Pradesh,Vijayawada,HOS-HYD-015718,Rainbow Children's Hosptial - Vijayawada,"D.No: 48-10-12/2A, OPP. NTR University Of Health Sciences, Vijayawada",520008,0866-6669666,NA,NA,NA,corporaterelationsvja@rainbowhospitals.in,16.5098886,80.6354665
Andhra Pradesh,Vijayawada,HOS-HYD-1521,Chaitanya Eye Hospital,Tikkle Road Mogalrajpuram,520010,0866-2475153,NA,NA,NA,chaitanyaeye153@gmail.com,16.504731,80.647585
Andhra Pradesh,Vijayawada,HOS-HYD-67,Pinnamaneni Care Hospital,"60-9-10, Siddartha Nagar.Pinnamaneni Poly Clinic Road",520010,0866-2470100,NA,NA,NA,drpsimhprn@yahoo.in,16.504401,80.652885
Andhra Pradesh,Vijayawada,HOS-HYD-2189,Rich Hospital,"Kasturi Peta, .Near Pushpa Hotel Centre",520010,0866-2436577,NA,NA,NA,NA,16.506623,80.631574
Andhra Pradesh,Vijayawada,HOS-HYD-1584,Usha Cardiac Centre Limited,"#39-2-11, Pitchaiah Street, Labbipet",520010,0866-2484944,NA,NA,NA,ucclvja@gmail.com,16.506829,80.648035
Andhra Pradesh,Vijayawada,HOS-HYD-3241,Svr Neuro Hospital,"40-1/1-14, Abc Sivananda St. Labbipeta",520010,0866-2494930,NA,NA,NA,svrneurohospital@gmail.com,16.503311,80.63971
Andhra Pradesh,Vijayawada,HOS-HYD-3425,Maxivision Eye Hospitals Pvt Ltd.,"H.No. 40-1-48, Labbipet",520010,0866-2495944,NA,NA,NA,maxivision_vkr@rediffmail.com,16.503661,80.639685
Andhra Pradesh,Vijayawada,HOS-HYD-4055,Royal Hospitals,"33-25-45, Bellapusobhanadri Street",520010,0866-2441778,NA,NA,NA,gowrisankar.rajulapati@gmail.com,16.510738,80.638465
Andhra Pradesh,Vijayawada,HOS-HYD-3888,Trust Hospital,"40-9-58, Guttikonda Gopal Rao St., Kalanagar,",520010,0866-2475656,NA,NA,NA,trusthospital@gmail.com,16.500986,80.655993
Andhra Pradesh,Vijayawada,HOS-HYD-4567,Sri Venkateswara Nursing Home,"32-2-12A, Boyapati Madhava Road, Road, Mogalrajapuram",520010,0866-2495775,NA,NA,NA,NA,16.54538,80.633949
Andhra Pradesh,Vijayawada,HOS-HYD-5701,Praveen Cardiac Centre,"33-25-35/C, Bellapu Shobha Nadri Street, Kasturibaipet",520010,0866-2444440,NA,NA,NA,praveencardiaccentre@gmail.com,16.506603,80.648121
Andhra Pradesh,Vijayawada,HOS-HYD-6278,Krishna Institute Of Medical Sciences Ltd-Vijayawada,"D. No-61-9-10, Pinnamaneni Poly Clinic Road, Siddartha Nagar",520010,0866-6644666,NA,NA,NA,kimsvijayawada@gmail.com,16.50436,80.652949
Andhra Pradesh,Vijayawada,HOS-HYD-6615,Positive Pulse Hospitals,"Opp: Eenadu: Benz Circle, Krishna",520010,0866-6644555,NA,NA,NA,chitradarb@yahoo.com,16.501521,80.65663
Andhra Pradesh,Vijayawada,HOS-HYD-6757,Suraksha Hosptial,"32-2-8A, Anjamma St, Mogalaraja Puram, Krishna",520010,0866-6677999,NA,NA,NA,paladugugirish@gmail.com,16.509709,80.645099
Andhra Pradesh,Vijayawada,HOS-HYD-4341,Prashanth Hospital,"Apseb City Central Colony,Off M.G.Road,Labbipata,",520010,0866-2491749,NA,NA,NA,prashanth_hospital@rediffmail.com,16.500434,80.644055
Andhra Pradesh,Vijayawada,HOS-HYD-015531,K.K Hospital,"32-2/1-3A, Ratnamamba Street, Praja Sakthi Nagar, Moghalrajapuram",520010,0866-6465771,NA,NA,NA,kkhospitals2016@gmail.com,16.5097814,80.6425187
Andhra Pradesh,Vijayawada,HOS-HYD-015656,Ravi's American Cancer Care,"Opp. Siddhartha Public School Main Gate,  Mogalrajpuram",520010,0866-2482000,NA,NA,NA,insurance.race@gmail.com,16.4989734,80.6521139
Andhra Pradesh,Vijayawada,HOS-HYD-015074,Srikara Hospitals (A Unit Of Venkateshwara Ortho Heal,"NH-65, Opp. Eenadu Office,Ramchandra Nagar, Near Benz Circle",520010,0866-3312345,NA,NA,NA,srikara.vijayawada@gmail.com,16.4989734,80.6521139
Andhra Pradesh,Vijayawada,HOS-HYD-6668,Capital Hospitals (A Unit Of Capital Tree Health Care Pv,"D. No.15-177/1, Bandar Road, Poranki",521137,0866-2583666,NA,NA,NA,hrdboppanamedicare@gmail.com,16.477576,80.701643
Andhra Pradesh,Vijayawada,HOS-HYD-014828,Kamineni Health Care Pvt Ltd,"100 Feet New Autonagar Road, Tadigadapa Bus Stop, Near Siddhartha Engg. Co",521137,0866-2463333,NA,NA,NA,phanikumar1980@gmail.com,16.4956252,80.7014068
Andhra Pradesh,Vijayawada,HOS-HYD-7691,Andhra Hospitals (Bhavanipuram) Pvt Ltd.,"D.No.: 19/72-1, Opp. High School, Gollapudi, Krishna Distict",521225,0866-2415757,NA,NA,NA,ahbvpmpl@gmail.com,16.536297,80.584652
Andhra Pradesh,Vijayawada,HOS-HYD-6812,Dr. Pinnamaneni Siddhartha Institute Of Medical Scienc,"Chinaoutpalli, Gannavaram Mandalam, Krishna Dist",521286,08676-257312,NA,NA,NA,panikumar1980@gmail.com,16.50329,80.649519
Andhra Pradesh,Vijayawada,HOS-HYD-5971,Ravi Mother And Child Hospital,Anjaiah Roadprakasam,523002,08592-230900,NA,NA,NA,shobha3reddy@gmail.com,16.513124,80.65024
Andhra Pradesh,Vinukonda,HOS-HYD-013495,Vennela Nethralayam-Vinukonda,"D.No..23/189, Palnad Road, Vinukonda",522647,08646-274488,NA,NA,NA,vennelanethralayam@gmail.com,16.0586,79.735784
